Well ID,S.No,STATE,DISTRICT,BLOCK,LOCATION,LATITUDE,LONGITUDE,Year,pH,EC,CO3,HCO3,Cl,SO4,NO3,PO4,TH,Ca,Mg,Na,K,F,SiO2,TDS,U(ppb)
W113126092431802,1.0,A&N Islands,South Andaman,PORT BLAIR,Kodiaghat,11.545,92.74583,2021.0,7.74,349.0,0,183.0,25.0,1,1,,175.0,34.0,22.0,10.0,0.0,0.84,,206.0,4.8
W113616092411001,2.0,A&N Islands,South Andaman,PORT BLAIR,Sippighat,11.6025,92.73,2021.0,7.53,660.0,0,262.0,82.0,5,1,,250.0,52.0,29.0,51.0,1.0,0.28,,381.0,6.4
W113640092443301,3.0,A&N Islands,South Andaman,PORT BLAIR,Brichganj,11.62083,92.73028,2021.0,7.5,270.0,0,116.0,35.0,1,0,,125.0,4.0,28.0,10.0,1.0,0.46,,151.0,BDL
W114421092422801,4.0,A&N Islands,South Andaman,FERRARGUNJ,Wimberleyganj,11.7325,92.70861,2021.0,7.6,311.0,0,159.0,39.0,2,0,,135.0,26.0,17.0,15.0,2.0,0.37,,198.0,0.4
W113955092391801,5.0,A&N Islands,South Andaman,FERRARGUNJ,Ograbraj,11.66361,92.65806,2021.0,7.82,2501.0,0,512.0,560.0,56,5,,465.0,56.0,79.0,336.0,18.0,0.95,,1424.0,BDL
W113137092432201,6.0,A&N Islands,South Andaman,PORT BLAIR,Burmanala,11.55778,92.72917,2021.0,7.71,264.0,0,153.0,35.0,1,1,,130.0,26.0,16.0,15.0,0.0,0.57,,188.0,3.4
W113227092433001,7.0,A&N Islands,South Andaman,PORT BLAIR,Calicut,11.6075,92.72556,2021.0,7.79,535.0,0,323.0,28.0,1,1,,245.0,38.0,36.0,19.0,0.0,0.41,,321.0,0.1
W114348092404801,8.0,A&N Islands,South Andaman,FERRARGUNJ,Saitankhari,11.71167,92.67111,2021.0,7.78,440.0,0,226.0,39.0,1,1,,190.0,36.0,24.0,22.0,2.0,0.69,,264.0,0.8
W123020092544201,9.0,A&N Islands,N&M Andaman,MAYABUNDER,Rangat,12.50611,92.90861,2021.0,7.92,592.0,0,317.0,35.0,1,0,,265.0,34.0,44.0,15.0,2.0,0.32,,325.0,2.3
W123014092513301,10.0,A&N Islands,N&M Andaman,MAYABUNDER,Bakultala,12.50417,92.85833,2021.0,7.78,456.0,0,226.0,21.0,5,2,,205.0,38.0,27.0,14.0,7.0,0.6,,251.0,0.3
W123129092581301,11.0,A&N Islands,N&M Andaman,MAYABUNDER,Nimbutala,12.49444,92.95417,2021.0,7.78,531.0,0,323.0,25.0,2,1,,245.0,36.0,38.0,14.0,1.0,0.68,,314.0,0.9
W123030092573801,12.0,A&N Islands,N&M Andaman,MAYABUNDER,Padmanavapuram,12.60667,92.94917,2021.0,7.29,506.0,0,275.0,32.0,0,0,,215.0,32.0,33.0,14.0,1.0,0.66,,280.0,BDL
W124940092512801,13.0,A&N Islands,N&M Andaman,MAYABUNDER,Rest Camp,12.83278,92.85917,2021.0,7.75,431.0,0,220.0,25.0,1,1,,195.0,20.0,35.0,18.0,1.0,0.4,,234.0,1.1
W113427092395101,14.0,A&N Islands,South Andaman,PORT BLAIR,Gupta Para,11.55972,92.65861,2021.0,7.22,147.0,0,49.0,25.0,0,0,,50.0,16.0,2.0,9.0,1.0,0.37,,84.0,0.5
W121001092455601,15.0,A&N Islands,N&M Andaman,RONGET,Baratang (Nilambur),12.16833,92.76694,2021.0,7.83,548.0,0,293.0,28.0,1,1,,200.0,26.0,33.0,35.0,1.0,0.49,,303.0,0.5
W121858092472001,16.0,A&N Islands,N&M Andaman,RONGET,Uttara,12.16139,92.79,2021.0,7.59,253.0,0,122.0,28.0,1,1,,110.0,22.0,13.0,11.0,2.0,0.47,,153.0,0.5
W122041092464401,17.0,A&N Islands,N&M Andaman,RONGET,Kadamtala,12.34917,92.77417,2021.0,7.9,626.0,0,342.0,28.0,1,1,,240.0,26.0,43.0,48.0,1.0,0.38,,356.0,0.1
W122009092455601,18.0,A&N Islands,N&M Andaman,RONGET,Porlobjig-15,12.49556,92.78111,2021.0,7.7,349.0,0,189.0,25.0,1,1,,150.0,22.0,23.0,16.0,3.0,0.7,,206.0,0.1
W122724092462501,19.0,A&N Islands,N&M Andaman,RONGET,Tikadera,12.52278,92.81389,2021.0,7.38,186.0,0,92.0,21.0,0,1,,80.0,22.0,6.0,9.0,2.0,0.48,,117.0,0.2
W125604092513601,20.0,A&N Islands,N&M Andaman,MAYABUNDER,Mohanpur,12.95417,92.83556,2021.0,7.61,579.0,0,238.0,60.0,6,8,,195.0,36.0,26.0,50.0,7.0,0.34,,338.0,BDL
W251045079470001,21.0,A&N Islands,N&M Andaman,KABRAI,Srinagar,13.13944,92.86806,2021.0,7.38,387.0,0,195.0,21.0,2,1,,115.0,32.0,9.0,44.0,3.0,0.31,,231.0,BDL
W131024092555501,22.0,A&N Islands,N&M Andaman,DIGLIPUR,Nabagram,13.15472,92.94833,2021.0,7.31,278.0,0,177.0,21.0,1,3,,145.0,14.0,27.0,9.0,1.0,0.43,,185.0,0.8
W131351092571902,23.0,A&N Islands,N&M Andaman,DIGLIPUR,Durgapur,13.27333,93.03194,2021.0,7.54,475.0,0,238.0,35.0,11,4,,190.0,38.0,23.0,32.0,2.0,0.39,,292.0,4.1
W131708093001101,24.0,A&N Islands,N&M Andaman,DIGLIPUR,Laxmipur,13.27583,92.96667,2021.0,7.29,360.0,0,134.0,21.0,38,2,,120.0,28.0,12.0,32.0,5.0,0.54,,221.0,0.7
W131427092592601,25.0,A&N Islands,N&M Andaman,DIGLIPUR,Subhasgram,13.25222,92.97417,2021.0,7.55,844.0,0,329.0,28.0,86,7,,355.0,56.0,52.0,42.0,2.0,0.34,,475.0,5
W124345092530501,26.0,A&N Islands,N&M Andaman,MAYABUNDER,Basantipur,12.7575,92.8725,2021.0,7.69,366.0,0,220.0,18.0,2,0,,175.0,36.0,21.0,14.0,2.0,0.57,,227.0,6.4
W113938092443601,27.0,A&N Islands,South Andaman,PORT BLAIR,Marina Park,11.67167,92.74667,2021.0,7.77,378.0,0,220.0,25.0,1,0,,195.0,42.0,22.0,11.0,2.0,0.38,,237.0,2.3
W114231092390001,28.0,A&N Islands,South Andaman,FERRARGUNJ,Annikat,11.70833,92.65,2021.0,7.45,412.0,0,195.0,35.0,3,2,,140.0,28.0,17.0,24.0,1.0,0.68,,230.0,2.9
W114016092415501,29.0,A&N Islands,South Andaman,FERRARGUNJ,Namunagar,11.69028,92.68028,2021.0,7.52,273.0,0,146.0,25.0,2,1,,120.0,28.0,12.0,12.0,1.0,0.52,,172.0,0.1
W122205092551201,30.0,A&N Islands,Long Island,RONGET,Long Island,12.36444,92.92333,2021.0,7.14,533.0,0,305.0,25.0,5,2,,255.0,74.0,17.0,7.0,1.0,0.74,,317.0,1.8
W122200092552201,31.0,A&N Islands,Long Island,RONGET,Long Island (forest Area),12.36639,92.92333,2021.0,7.34,878.0,0,494.0,32.0,2,0,,280.0,40.0,44.0,55.0,11.0,0.68,,497.0,0.7
W115913092571701,32.0,A&N Islands,Havelock,PORT BLAIR,Radhanagar,11.99167,92.95333,2021.0,7.77,878.0,0,458.0,53.0,8,1,,245.0,48.0,30.0,75.0,8.0,0.22,,504.0,0.1
W123652092555501,33.0,A&N Islands,N&M Andaman,MAYABUNDER,Swadeshnagar,12.65083,92.89111,2021.0,7.6,260.0,0,146.0,18.0,8,0,,135.0,18.0,22.0,9.0,1.0,0.15,,165.0,2.5
W114004092441501,34.0,A&N Islands,South Andaman,PORT BLAIR,Light House,11.66778,92.73778,2021.0,7.79,858.0,0,458.0,50.0,6,0,,110.0,16.0,17.0,154.0,4.0,0.23,,527.0,4.5
W291530078553001,35.0,A&N Islands,Neil Island,Gadarpur,Bharatpur,11.83,93.03806,2021.0,7.25,557.0,0,329.0,35.0,3,1,,245.0,44.0,33.0,21.0,1.0,0.31,,338.0,0.8
W291530078553001,36.0,A&N Islands,Neil Island,Gadarpur,Bharatpur,11.83611,93.04444,2021.0,7.46,746.0,0,409.0,43.0,11,1,,300.0,64.0,34.0,40.0,3.0,0.25,,446.0,0.3
W243310081461201,37.0,A&N Islands,Neil Island,MAUGANJ,Sitapur,11.82,93.05972,2021.0,7.71,1020.0,0,488.0,74.0,4,1,,330.0,54.0,47.0,50.0,13.0,0.72,,543.0,0.1
W114955093010201,38.0,A&N Islands,Neil Island,PORT BLAIR,Laxmanpur,11.83194,93.01694,2021.0,7.59,953.0,0,415.0,78.0,24,2,,295.0,44.0,45.0,60.0,5.0,0.26,,511.0,1.7
W113947092444601,39.0,A&N Islands,Ross Island,PORT BLAIR,Ross Island,11.675,92.76167,2021.0,7.53,466.0,0,183.0,53.0,19,0,,210.0,48.0,22.0,12.0,2.0,0.37,,290.0,0.6
W113646092400201,40.0,A&N Islands,South Andaman,PORT BLAIR,Dhannikhari,11.61556,92.66778,2021.0,7.67,348.0,0,183.0,21.0,2,0,,160.0,26.0,23.0,11.0,0.0,1.21,,225.0,0.9
W113839092392201,41.0,A&N Islands,South Andaman,FERRARGUNJ,Port Mout,11.64389,92.65611,2021.0,7.87,448.0,0,226.0,18.0,25,0,,190.0,38.0,23.0,17.0,1.0,0.38,,287.0,0.8
W114056092381101,42.0,A&N Islands,South Andaman,FERRARGUNJ,Tushnabad,11.68222,92.63639,2021.0,7.92,749.0,0,262.0,92.0,6,6,,180.0,48.0,15.0,87.0,8.0,0.51,,437.0,0.7
W105435075551501,43.0,A&N Islands,South Andaman,THIRUR MUNICIPALITY,Tirur,11.72417,92.61361,2021.0,7.2,157.0,0,61.0,21.0,0,0,,60.0,18.0,4.0,7.0,1.0,0.82,,104.0,1.2
W114302092391001,44.0,A&N Islands,South Andaman,FERRARGUNJ,Ferrarganj,11.71694,92.65278,2021.0,7.5,1016.0,0,397.0,96.0,18,5,,230.0,62.0,18.0,127.0,7.0,0.31,,585.0,0.7
W114320092393901,45.0,A&N Islands,South Andaman,FERRARGUNJ,Bindraban,11.72167,92.66722,2021.0,7.88,372.0,0,183.0,18.0,4,0,,135.0,20.0,21.0,16.0,1.0,0.26,,205.0,0.7
W114358092423201,46.0,A&N Islands,South Andaman,FERRARGUNJ,Knoppuram,11.7325,92.70889,2021.0,7.66,461.0,0,220.0,21.0,40,0,,175.0,42.0,17.0,29.0,2.0,0.64,,305.0,0.1
W114730092363001,47.0,A&N Islands,South Andaman,FERRARGUNJ,Mile Tilak,11.79472,92.65556,2021.0,7.71,391.0,0,153.0,21.0,46,1,,135.0,38.0,10.0,29.0,6.0,0.45,,266.0,2.3
W114011092403601,48.0,A&N Islands,South Andaman,FERRARGUNJ,Mithakhari,11.01778,92.67306,2021.0,7.29,223.0,0,73.0,35.0,0,0,,130.0,40.0,7.0,34.0,3.0,0.18,,125.0,0.6
W113444092403501,49.0,A&N Islands,South Andaman,PORT BLAIR,Nayasahar,11.57889,92.67639,2021.0,7.53,190.0,0,67.0,18.0,10,0,,70.0,18.0,6.0,12.0,0.0,0.19,,118.0,0.1
W110705076071501,50.0,A&N Islands,South Andaman,MANJERI MUNICIPALITY,Manjeri,11.5375,92.64722,2021.0,7.15,609.0,0,183.0,78.0,15,1,,140.0,26.0,18.0,68.0,4.0,0.24,,339.0,0.6
W113551092375801,51.0,A&N Islands,South Andaman,PORT BLAIR,Mamyo,11.5975,92.63278,2021.0,7.55,169.0,0,67.0,25.0,0,0,,60.0,16.0,5.0,13.0,0.0,0.53,,112.0,BDL
W113833092433601,52.0,A&N Islands,South Andaman,PORT BLAIR,Lamba Line,11.645,92.73083,2021.0,7.81,326.0,0,140.0,43.0,2,2,,110.0,36.0,5.0,29.0,4.0,0.35,,223.0,0.7
W114317092435901,53.0,A&N Islands,South Andaman,FERRARGUNJ,Mount Harriyat,11.72139,92.73306,2021.0,7.04,202.0,0,67.0,21.0,17,1,,100.0,22.0,11.0,3.0,1.0,0.32,,121.0,1.6
W122440092454401,54.0,A&N Islands,N&M Andaman,RONGET,Phooltala Basti,12.41167,92.76222,2021.0,7.91,499.0,0,256.0,43.0,1,1,,225.0,22.0,41.0,19.0,4.0,0.21,,300.0,0.6
W130955092525301,55.0,A&N Islands,N&M Andaman,DIGLIPUR,Kishorinagar (Parangara),13.165,92.88167,2021.0,7.38,157.0,0,61.0,18.0,5,1,,65.0,12.0,9.0,6.0,1.0,0.32,,95.0,0.5
W131850092563301,56.0,A&N Islands,N&M Andaman,DIGLIPUR,Milangram,13.31417,92.94111,2021.0,7.91,931.0,0,281.0,113.0,61,3,,345.0,30.0,66.0,55.0,7.0,0.83,,515.0,0.1
W131434093023901,57.0,A&N Islands,N&M Andaman,DIGLIPUR,Shibpur,13.24306,93.04417,2021.0,7.72,748.0,0,348.0,67.0,0,1,,260.0,74.0,18.0,63.0,2.0,0.52,,439.0,0.1
W131537093004901,58.0,A&N Islands,N&M Andaman,DIGLIPUR,Keralapuram,13.26,93.01333,2021.0,8.07,481.0,0,165.0,32.0,47,1,,125.0,24.0,16.0,44.0,2.0,0.34,,279.0,5.6
W125022092511201,59.0,A&N Islands,N&M Andaman,MAYABUNDER,Pahalgaon,12.83944,92.85333,2021.0,7.64,616.0,0,299.0,32.0,7,1,,250.0,22.0,47.0,25.0,2.0,0.74,,340.0,3.5
W124157092525401,60.0,A&N Islands,N&M Andaman,MAYABUNDER,Joypur,12.69944,92.88139,2021.0,8.07,516.0,0,262.0,14.0,3,0,,225.0,22.0,41.0,5.0,0.0,0.26,,267.0,0.5
W123720092522201,61.0,A&N Islands,N&M Andaman,MAYABUNDER,Betapur,12.62583,92.92111,2021.0,8.03,427.0,0,171.0,25.0,37,0,,175.0,16.0,33.0,13.0,1.0,0.19,,246.0,1.1
W120159092585201,62.0,A&N Islands,Havelock Island,PORT BLAIR,Havelock Island Jetty,12.04111,92.98083,2021.0,7.66,1076.0,0,299.0,138.0,91,5,,280.0,80.0,19.0,107.0,8.0,0.73,,645.0,0.3
W120017093001701,63.0,A&N Islands,Havelock Island,PORT BLAIR,Vijaynagar,12.00528,93.00694,2021.0,7.54,579.0,0,293.0,46.0,4,1,,235.0,62.0,19.0,32.0,7.0,0.28,,370.0,1
W222820086432601,64.0,A&N Islands,Havelock Island,CHAKULIA,Kalapathar,11.97472,93.00583,2021.0,7.48,895.0,0,439.0,71.0,0,1,,285.0,78.0,22.0,87.0,3.0,0.39,,530.0,0.1
W120001092583401,65.0,A&N Islands,Havelock Island,PORT BLAIR,Krishnanagar,12.00028,92.97583,2021.0,7.58,446.0,0,134.0,28.0,63,0,,195.0,60.0,11.0,3.0,3.0,0.17,,321.0,0.5
W114953093010801,66.0,A&N Islands,Neil Island,PORT BLAIR,Pearl Park Resort,11.84583,92.015,2021.0,7.55,673.0,0,293.0,74.0,21,1,,240.0,64.0,19.0,49.0,2.0,0.08,,436.0,0.3
W114909093023001,67.0,A&N Islands,Neil Island,PORT BLAIR,Ramnagar,13.31417,92.94111,2021.0,7.65,593.0,0,244.0,50.0,10,0,,240.0,54.0,26.0,23.0,3.0,0.96,,333.0,3.9
W175430082071501,68.0,Andhra Pradesh,Visakhapatnam,GUDEM KOTHAVEEDI,Dharakonda,17.9083,82.1208,2021.0,6.8,410.0,0,171.0,25.0,8,41,N.A.,180.0,38.0,21.0,13.0,2.0,0.401,N.A.,,
W175300083260001,69.0,Andhra Pradesh,Visakhapatnam,BHEEMUNIPATNAM,Bhimunipatnam-1,17.8833,83.4333,2021.0,7.2,760.0,0,189.0,82.0,20,97,N.A.,195.0,50.0,17.0,71.0,22.0,0.322,N.A.,,
W175300083260002,70.0,Andhra Pradesh,Visakhapatnam,BHEEMUNIPATNAM,Bhimunipatnam-2,17.8833,83.4333,2021.0,7.3,2650.0,0,695.0,298.0,160,186,N.A.,780.0,184.0,78.0,164.0,140.0,0.593,N.A.,,
W172255082461501,71.0,Andhra Pradesh,Visakhapatnam,NAKKALLI,Gurrajupeta,17.3819,82.7708,2021.0,7.21,2750.0,0,708.0,397.0,143,120,N.A.,780.0,200.0,68.0,274.0,26.0,0.677,N.A.,,
W173030082400002,72.0,Andhra Pradesh,Visakhapatnam,KOTAURATLA,Purshotta Puram,17.5083,82.6667,2021.0,7.69,1400.0,0,549.0,99.0,70,55,N.A.,310.0,64.0,36.0,175.0,11.0,1.59,N.A.,,
W174536082330201,73.0,Andhra Pradesh,Visakhapatnam,KOYYURU,Pata K.d.peta,17.6708,82.3625,2021.0,7.5,1150.0,0,476.0,71.0,45,53,N.A.,390.0,104.0,32.0,62.0,23.0,0.509,N.A.,,
W172730082510001,74.0,Andhra Pradesh,Visakhapatnam,S.RAYAVARAM,Rayavaram,17.4583,82.85,2021.0,7.61,2140.0,0,610.0,298.0,80,23,N.A.,580.0,56.0,107.0,219.0,8.0,0.533,N.A.,,
W175904083282801,75.0,Andhra Pradesh,Visakhapatnam,VISAKHAPATNAM(U),Lawson's Bay,17.7306,83.3433,2021.0,7.31,2740.0,0,952.0,269.0,135,24,N.A.,540.0,56.0,97.0,334.0,68.0,0.688,N.A.,,
W174929083162601,76.0,Andhra Pradesh,Visakhapatnam,VISAKHAPATNAM(U),Kancherapalem (Govt. Polytechnic),17.7342,83.28,2021.0,7.7,1140.0,0,451.0,78.0,70,24,N.A.,320.0,48.0,49.0,117.0,0.0,0.807,N.A.,,
W170640082154501,77.0,Andhra Pradesh,Visakhapatnam,VISAKHAPATNAM(U),Pithapuram,17.7153,83.3319,2021.0,7.28,690.0,0,214.0,71.0,35,18,N.A.,205.0,42.0,24.0,60.0,0.0,0.338,N.A.,,
W175407083145101,78.0,Andhra Pradesh,Visakhapatnam,VISAKHAPATNAM(U),Gopalpatnam PZ,17.7617,83.2203,2021.0,7.6,800.0,0,281.0,71.0,36,17,N.A.,250.0,46.0,33.0,64.0,2.0,0.594,N.A.,,
W180421083274601,79.0,Andhra Pradesh,Visakhapatnam,VISAKHAPATNAM(U),Anandapuram PZ,17.8919,83.3711,2021.0,7.4,350.0,0,165.0,14.0,13,5,N.A.,105.0,28.0,9.0,23.0,16.0,0.485,N.A.,,
W174914083182001,80.0,Andhra Pradesh,Visakhapatnam,VISAKHAPATNAM(U),Akkireddipalem PZ,17.7092,83.2072,2021.0,7.29,780.0,0,360.0,35.0,35,5,N.A.,205.0,36.0,28.0,85.0,1.0,0.918,N.A.,,
W175353082592001,81.0,Andhra Pradesh,Visakhapatnam,BUCHCHAYYAPETA,L.Singavaram,17.8139,82.8167,2021.0,7.3,950.0,0,464.0,35.0,29,3,N.A.,305.0,54.0,41.0,78.0,1.0,0.817,N.A.,,
W180441082255101,82.0,Andhra Pradesh,Visakhapatnam,PENDURTI,Bandavaripalem X road,17.7147,82.5906,2021.0,7.6,1630.0,0,366.0,142.0,281,30,N.A.,560.0,64.0,97.0,98.0,30.0,0.982,N.A.,,
W175014082404101,83.0,Andhra Pradesh,Visakhapatnam,GOLUGONDA,Naganna Dorapalem,17.7014,82.4792,2021.0,7.32,850.0,0,476.0,11.0,18,4,N.A.,275.0,56.0,33.0,69.0,5.0,1,N.A.,,
W270611093414001,84.0,Arunachal Pradesh,PAPUMPARE,,Doimukh,Naharlagun I,27.1,93.69,2021,8.07,367.3,0.0,103.78,31.905,14.94,40.32,,155.0,16.01,27.9,14.49,6.11,0.26,,197.5
W272730096063001,85.0,Arunachal Pradesh,Changlang,,Miao circle,Namphai,27.446084,96.10863,2021,7.88,114.7,0.0,73.26,3.545,2.09,5.26,,75.0,6.0,14.56,1.3,0.31,0.12,,61.1
W272500096024501,86.0,Arunachal Pradesh,Changlang,,Miao circle,Namchik,27.414577,95.971986,2021,7.79,122,0.0,61.05,14.18,10.36,6.48,,70.0,12.01,9.7,2.93,1.6,0.13,,64.77
W275818095452601,87.0,Arunachal Pradesh,Lower Dibang valley,,Roing,Kangklong,27.97171,95.75741,2021,7.71,207.9,0.0,67.15,10.635,14.9,14.46,,45.0,16.01,1.21,14.23,9.08,0.13,,109.1
W271200095313001,88.0,Arunachal Pradesh,Tirap,,Khonsa circle,Deomali,27.196588,95.462758,2021,7.49,146.4,0.0,42.73,17.725,13.67,4.23,,65.0,8.01,10.92,6.82,3.49,0.04,,77.5
W274000095523001,89.0,Arunachal Pradesh,Lohit,,Namsai circle,Lathow,27.73948,95.909805,2021,7.39,47.35,0.0,54.94,10.635,3.05,0.06,,30.0,10.01,1.21,15.91,2.06,0.06,,25.09
W270100095280001,90.0,Arunachal Pradesh,Tirap,,Khonsa circle,Borduria,27.115189,95.413139,2021,7.36,44.2,0.0,24.42,17.725,2.75,1.05,,45.0,6.0,7.28,1.76,0.37,0.08,,23.17
W270030095280001,91.0,Arunachal Pradesh,Tirap,,Khonsa circle,Hukanjuri,27.125802,95.437686,2021,7.05,112.4,0.0,67.15,60.265,8.01,13.58,,155.0,6.0,33.98,7.06,4.13,0.04,,59.51
W261210093062301,92.0,Assam,East Kaarbi-Anglong,,Raha,Swarghati,26.2027778,93.10638889,2021,8.77,337.9,12.0,238.09,28.36,0,12.57,,185.0,48.04,15.75,18.59,13.9,0.7,,196.6
W261113092440601,93.0,Assam,Nagaon,,Kathiatoli,Kathiatoli,26.1880556,92.70277778,2021,8.76,505.4,9.0,231.99,77.99,45.24,12.54,,205.0,46.04,21.82,48.6,22.74,0.62,,297.2
W261418091443401,94.0,Assam,Kamrup,Metro,NorthGuwahati,Dirgheswari,26.2388889,91.73994444,2021,8.72,369.7,15.0,244.2,53.175,18.91,0,,205.0,34.03,29.11,37.8,7.99,1.8,,197.8
W260101093225401,95.0,Assam,Karbi Anglong,,Bokajan,Terangaon,26.0225,93.38177778,2021,8.7,246,6.0,195.36,14.18,8.31,0,,145.0,44.04,8.47,11.53,35,0.61,,142.5
W261210093080001,96.0,Assam,East Kaarbi-Anglong,,Howraghat,Langhing,26.2027778,93.13333333,2021,8.7,249.1,6.0,140.41,28.36,10.54,30.82,,120.0,32.03,9.69,27.62,3.9,0.88,,144.2
W254600093103001,97.0,Assam,Nagaon,,Lanka,Lumding,25.758808,93.17457,2021,8.68,540.2,21.0,274.72,38.995,26.02,17.96,,220.0,44.04,26.68,45.14,9.52,0.88,,311.4
W261229093035601,98.0,Assam,East Kaarbi-Anglong,,Samelangso,Dokmoka,26.2083333,93.06555556,2021,8.68,197.8,12.0,152.62,10.635,7.66,22.75,,110.0,36.03,4.84,25.42,5.06,0.64,,114.8
W230530080300001,99.0,Assam,East Kaarbi-Anglong,,Howraghat,Manikpur,26.2497222,93.14638889,2021,8.66,474.3,15.0,293.03,49.63,9.72,11.48,,140.0,26.02,18.19,65.7,38.15,0.72,,276.4
W261453091412401,100.0,Assam,Kamrup,,Bejera,Dhobartari,26.2481944,91.69025,2021,8.66,449.5,12.0,238.09,155.98,12.12,0.5,,175.0,52.04,10.9,78.92,48.6,1.1,,240.8
W262406092483001,101.0,Assam,Nagaon,,Samulguri,Pahukata,26.4019444,92.80916667,2021,8.64,728.1,21.0,445.66,88.625,21.69,0,,330.0,56.04,46.09,48.68,50.93,0.66,,423.5
W261800092470001,102.0,Assam,Nagaon,,Brahmpur,Bamuni Tinali,26.2952778,92.7925,2021,8.64,312.1,6.0,152.62,38.995,20.39,0,,105.0,30.02,7.27,21.72,33.8,0.66,,182.1
W262500092370001,103.0,Assam,Nagaon,,Nagaon,Telia bebejia,26.4411111,92.64,2021,8.62,286.6,12.0,177.04,24.815,11.56,0,,130.0,36.03,9.69,24.92,10.78,0.97,,165
W260418092123701,104.0,Assam,Morigaon,,Mayong,Silsang Namghar,26.1216667,92.3508333,2021,8.59,214.5,3.0,91.57,24.815,11.13,0,,120.0,28.02,12.12,2.41,8.44,0.74,,121.1
W261015091350501,105.0,Assam,Kamrup,,Hajo,Sualkuchi,26.1674444,91.57083333,2021,8.54,1143,18.0,543.33,145.35,4.8,2.03,,430.0,72.06,60.64,95.88,72.54,0.95,,607
W261056093084901,106.0,Assam,East Kaarbi-Anglong,,Howraghat,Phuloni,26.1708333,93.13666667,2021,8.53,500.2,12.0,323.56,53.175,30.45,5.39,,255.0,48.04,32.74,44.01,14.6,0.83,,297.5
W263532092560401,107.0,Assam,Nagaon,,Kaliabor,Silghat,26.6069444,92.92916667,2021,8.49,410.4,15.0,280.82,28.36,21.19,13.86,,225.0,52.04,23.03,28.68,11.09,1,,240.1
W255639091070501,108.0,Assam,Goalpara,,Rongjuli,Rajapara,25.9458333,91.11333333,2021,8.48,348.1,6.0,268.61,17.725,1.29,0.52,,105.0,26.02,9.7,52.11,52.3,2.3,,185
W255739093291801,109.0,Assam,Karbi Anglong,,Bokajan,Amlokhi,25.9538889,93.48861111,2021,8.45,1058,6.0,659.33,138.255,19.41,0.77,,255.0,32.03,42.46,176.72,43.8,0.62,,629.7
W255447092574201,110.0,Assam,Nagaon,,Lanka,Lanka,26.1880556,92.73611111,2021,8.45,111.2,9.0,207.57,113.44,5.09,0,,230.0,24.02,41.25,54.79,0.85,0.42,,64.15
W262900092293002,111.0,Assam,Nagaon,,Kathiatoli,Bichamari,26.4013889,92.46,2021,8.44,428.1,15.0,213.67,38.995,15.49,20.08,,200.0,54.04,15.75,27.69,3.13,0.97,,245.8
W261521092134601,112.0,Assam,Morigaon,,Bhurbandha,Garmari Gaon,26.2630556,92.22361111,2021,8.44,468.9,21.0,360.19,17.725,0,2.33,,270.0,92.07,9.66,9.2,28.08,0.99,,270.8
W255424093393901,113.0,Assam,Karbi Anglong,,Bokajan,Lahorijan,25.9069444,93.66138889,2021,8.43,670.8,9.0,231.99,109.895,13,36.42,,250.0,50.04,30.32,85.72,7.57,0.5,,393.6
W255900092554401,114.0,Assam,Nagaon,,Dhalpukhri,Jurapukhuri,25.9652778,92.94361111,2021,8.42,493.5,9.0,195.36,24.815,16.53,7.36,,150.0,44.04,9.69,27.13,7.04,0.83,,284.6
W263400092514301,115.0,Assam,Nagaon,,Kaliabor,Dalapani,26.5672222,92.86222222,2021,8.42,545.7,21.0,335.77,46.085,20.85,0,,270.0,66.05,25.45,26.83,21.19,0.87,,318
W255817090570901,116.0,Assam,Goalpara,,Rongjuli,Sarapara,25.9713889,90.9525,2021,8.39,273.1,9.0,225.88,28.36,2.57,0.14,,100.0,24.02,9.7,54.82,31.93,1.6,,147
W262356092135501,117.0,Assam,Morigaon,,Lahorighat,Barukati,26.4,92.2319444,2021,8.39,369.1,9.0,201.46,28.36,8.98,0.2,,190.0,18.01,35.19,10.27,3.01,0.98,,213.2
W261723091424301,118.0,Assam,Kamrup,,Bejera,Dora Kahara,26.2898889,91.71211111,2021,8.39,469.7,9.0,238.09,209.155,2.77,1.07,,240.0,38.03,35.18,72.43,46.72,0.65,,266.5
W272830095220001,119.0,Assam,Tinsukia,,Guijan,Tinsukia,27.484937,95.351924,2021,8.39,768.1,9.0,146.52,95.715,26.25,41.36,,230.0,32.03,36.39,50.05,19.24,0.09,,411.1
W261136092144301,120.0,Assam,Morigaon,,Morigaon,Kumoi,26.1936111,92.2452778,2021,8.38,413.7,6.0,140.41,38.995,10.85,0,,135.0,22.02,19.41,20.64,3.73,1.4,,240.5
W261615091131401,121.0,Assam,Nalbari,,Barkhetri,Daulasal,26.2709722,91.22075,2021,8.38,626.8,18.0,250.3,205.61,14.95,0.32,,270.0,78.06,18.17,79.61,39.01,0.74,,330.9
W274510095082001,122.0,Assam,DHEMAJI,,Murkongselek,Bijoypur,27.7803889,95.16677778,2021,8.38,438.2,9.0,219.78,38.995,22.97,17.12,,185.0,36.03,23.04,30.14,10.59,0.54,,233.1
W261136092144301,123.0,Assam,Morigaon,,Morigaon,Kumoi,26.1936111,92.24527778,2021,8.37,772.9,12.0,286.93,170.16,14.91,0,,265.0,72.06,20.6,112.24,6.42,1.1,,455.9
W261529092184201,124.0,Assam,Morigaon,,Morigaon,Basanaghat,26.2580556,92.3116667,2021,8.37,270.6,9.0,97.68,31.905,13.92,0,,120.0,28.02,12.12,5.84,7.5,0.71,,155.3
W272935095153601,125.0,Assam,Tinsukia,,Guijan,Panitola,27.49542,95.254476,2021,8.36,369.5,12.0,201.46,17.725,13.35,3.91,,150.0,26.02,20.62,20.07,16.68,0.08,,196.1
W245247092530501,126.0,Assam,Cachar,,Borkhola,Moinarbond,24.8533611,92.83588889,2021,8.35,338.5,9.0,183.15,116.985,5.69,0.52,,170.0,38.03,18.19,55.51,13.45,0.71,,178.7
W261427092154901,127.0,Assam,Morigaon,,Bhurbandha,Pamibaghara,26.240898,92.26362,2021,8.35,183.7,9.0,79.36,31.905,8.6,0,,95.0,22.02,9.7,10.81,3.9,0.73,,106.4
W243503092010001,128.0,Assam,Cachar,,Barjalenga,Dwarbond,24.5841667,92.01777778,2021,8.35,513.2,6.0,128.2,290.69,9.19,1.6,,250.0,40.03,36.39,78.79,40.38,0.34,,277.8
W261101092175101,129.0,Assam,Morigaon,,Bhurbandha,Baghara,26.2266667,92.27583333,2021,8.33,875.8,6.0,286.93,177.25,20.72,13.83,,230.0,58.05,20.6,114.16,36.82,0.85,,503.8
W272624094123501,130.0,Assam,LAKHIMPUR,,Boginadi,Pathalipam II,27.44,94.21,2021,8.33,27.14,12.0,42.73,10.635,0.15,0,,30.0,4.0,4.85,13.14,7.74,0.38,,15.49
W244314092204701,131.0,Assam,Karimganj,,South Karimganj,Kayasthagram,24.7206944,92.34611111,2021,8.33,378.8,12.0,219.78,127.62,15.2,1.03,,245.0,64.05,20.6,42.44,17.64,0.53,,200
W243345092245001,132.0,Assam,Karimganj,,Dullavcherra,Sarkaribari,24.56525,92.41,2021,8.31,336.1,15.0,219.78,106.35,1.77,0.23,,195.0,56.04,13.32,40.44,28.72,0.43,,173.5
W262900092293001,133.0,Assam,Nagaon,,Batadara,Dhing,26.461485,92.47859,2021,8.31,403.7,15.0,244.2,24.815,19.27,4.58,,190.0,28.02,29.11,32.06,8.54,0.9,,233.4
W260708091584801,134.0,Assam,Kamrup,,Dimaria,Samanta Pathar,26.1188889,91.98,2021,8.29,109.6,0.0,79.36,14.18,0.42,0,,45.0,16.01,1.21,18.04,4.28,1,,62.33
W261427092154901,135.0,Assam,Morigaon,,Bhurbandha,Pamibaghara,26.240898,92.26362,2021,8.28,120,0.0,61.05,17.725,5.37,0,,65.0,14.01,7.27,8.79,1.7,0.75,,68.72
W273000094324001,136.0,Assam,DHEMAJI,,Dhemaji,Dhemaji,27.5115833,94.58730556,2021,8.27,196.1,0.0,134.31,7.09,3.23,1.75,,100.0,38.03,1.2,5.39,1.63,0.47,,101.5
W272630094170001,137.0,Assam,LAKHIMPUR,,Boginadi,Pathalipam,27.4476944,94.23002778,2021,8.24,108.9,0.0,67.15,7.09,7.82,0.52,,65.0,18.01,4.85,2.37,2.41,0.49,,62.74
W255600092423102,138.0,Assam,West Kaarbi-Anglong,,Howraghat,Boithalangsu,25.9722222,92.58583333,2021,8.24,113.4,0.0,73.26,14.18,4.46,0.01,,55.0,8.01,8.49,11.3,1.12,1.1,,65.8
W255143092460601,139.0,Assam,West Kaarbi-Anglong,,Langsomepi,Kalonga,25.8616667,92.76777778,2021,8.24,163.4,0.0,36.63,24.815,4.18,2.35,,40.0,8.01,4.85,8.58,6.71,0.65,,94.42
W260700092003001,140.0,Assam,Kamrup,,Dimaria,Sonapur,26.1177778,91.96388889,2021,8.22,312.1,0.0,67.15,53.175,47.4,4.69,,105.0,12.01,18.2,21.34,24.24,0.42,,179.4
W261136092575701,141.0,Assam,East Kaarbi-Anglong,,Samelangso,Dengaon,26.2125,92.97194444,2021,8.21,117.6,0.0,67.15,17.725,0,5.06,,55.0,16.01,3.63,8.83,3.73,0.58,,68.47
W255725093263301,142.0,Assam,Karbi Anglong,,Bokajan,Manja,25.97,93.44080556,2021,8.2,217.3,0.0,61.05,53.175,7.71,0,,65.0,14.01,7.27,33.77,5.37,0.33,,126.3
W260359089494501,143.0,Assam,Kokrajhar,,Rupshi,Rupshi,26.1180556,89.92255556,2021,8.2,68.06,0.0,91.57,53.175,13.35,1.14,,120.0,42.03,3.62,14.01,4.38,0.43,,37.24
W255049092535201,144.0,Assam,West Kaarbi-Anglong,,Langsomepi,Kheronighat,25.8475,92.88416667,2021,8.18,156.1,0.0,61.05,28.36,3.75,1.19,,65.0,24.02,1.2,15.37,2.15,0.44,,89.7
W270200093501001,145.0,Assam,LAKHIMPUR,,Narayanpur,Bhogpur Charali,27.0465556,93.83275,2021,8.17,237,0.0,134.31,21.27,4.17,13.63,,110.0,26.02,10.91,12.16,2.37,0.48,,125.5
W260500091400001,146.0,Assam,Kamrup,,Rani,Rani,26.037,91.578,2021,8.17,281.7,0.0,177.04,28.36,14.64,1.15,,140.0,36.03,12.12,18.16,8.77,0.75,,152.6
W260925093480001,147.0,Assam,Karbi Anglong,,Bokajan,Balipathar,26.1505556,93.7925,2021,8.17,144.7,0.0,85.47,24.815,5.5,0,,90.0,22.02,8.48,8.36,4.7,0.39,,84.63
W261618090273601,148.0,Assam,Dhubri,,Chapar,Chapar,26.2768889,90.44686111,2021,8.17,305.2,0.0,152.62,88.625,21.43,0.5,,160.0,58.05,3.61,32.39,14.43,0.55,,160.1
W262730091370001,149.0,Assam,Kamrup,,Rangia,Rangia,26.4375894,91.6236425,2021,8.16,829.2,0.0,360.19,67.355,76.88,0.85,,230.0,46.04,27.89,56.58,76.42,1.1,,441.2
W212350077274001,150.0,Assam,Biswanath,,Behali,Behali,26.8323333,93.35775,2021,8.16,140.2,0.0,73.26,10.635,2.51,5.25,,60.0,12.01,7.28,9.54,6.56,0.38,,74.45
W261600090353001,151.0,Assam,Bongaigaon,,Baitamari,Chalantapara,26.2377778,90.57644444,2021,8.13,453.2,0.0,103.78,322.595,18.32,0,,315.0,56.04,42.45,75.93,35.19,0.4,,247
W270721093512001,152.0,Assam,LAKHIMPUR,,Karunabari,Harmoti,27.1228889,93.85394444,2021,8.12,263.4,0.0,134.31,17.725,12.31,1.75,,110.0,24.02,12.12,9.65,13.86,0.39,,139.3
W260418092123701,153.0,Assam,Morigaon,,Kapilli,Silsang Namghar,26.1216667,92.35083333,2021,8.12,174.7,0.0,91.57,17.725,15.42,0,,90.0,22.02,8.48,4.07,11.23,0.45,,100
W272330095383001,154.0,Assam,Tinsukia,,Margherita,Digboi,27.380266,95.615446,2021,8.12,182.5,0.0,122.1,10.635,4.35,0,,100.0,20.02,12.13,5.07,1.38,0.05,,101.4
W243830092211501,155.0,Assam,Karimganj,,Patharkandi,Dhaulia,24.6240556,92.36227778,2021,8.12,186.7,0.0,134.31,77.99,7.33,0.19,,150.0,26.02,20.62,24.1,8.02,0.36,,96.39
W261130092510001,156.0,Assam,Nagaon,,Kathiatoli,Doboka,26.1319444,92.88805556,2021,8.1,58.86,0.0,48.84,10.635,0.85,7.46,,30.0,8.01,2.42,12.7,3.83,0.61,,34.37
W292850079285501,157.0,Assam,Golaghat,,Golaghat south,Garampani,26.3925,93.88055556,2021,8.08,269.3,0.0,48.84,53.175,13.74,17.95,,100.0,26.02,8.48,22.44,5.63,0.42,,154.8
W264450093150001,158.0,Assam,Biswanath,,Biswanath,Bihupukhuri,26.7604722,93.26158333,2021,8.08,343.5,0.0,122.1,49.63,10.92,10.23,,170.0,20.02,29.12,4.49,5.49,0.33,,182.7
W261529092184201,159.0,Assam,Morigaon,,Morigaon,Basanaghat,26.2580556,92.31166667,2021,8.08,355.6,0.0,61.05,70.9,30.82,4.67,,145.0,50.04,4.83,10.92,14.15,0.89,,204
W261015091350501,160.0,Assam,Kamrup,,Hajo,Sualkuchi,26.1674444,91.57083333,2021,8.07,1207,0.0,488.39,106.35,53.17,9.09,,295.0,110.09,4.8,85.97,58.85,1.2,,636.1
W270700094064201,161.0,Assam,LAKHIMPUR,,Lakhimpur,Panigaon,27.1374444,94.11066667,2021,8.06,161.4,0.0,128.2,7.09,0.05,13.66,,100.0,20.02,12.13,6.17,2.32,0.63,,92.59
W265405093422901,162.0,Assam,Biswanath,,Pub Chayduar,Kolabari,26.9014444,93.70805556,2021,8.06,197.1,0.0,152.62,7.09,0,30.3,,115.0,22.02,14.55,11.45,4.79,0.74,,112.2
W260033093154301,163.0,Assam,Karbi Anglong,,Langsomepi,Phonglangso,26.0266944,93.23236111,2021,8.05,297.3,9.0,256.4,14.18,2.78,0,,165.0,30.02,21.83,27.83,3.49,0.99,,173.1
W260829092491102,164.0,Assam,Nagaon,,Kathiatoli,Zebra Khua,26.1386111,92.80861111,2021,8.04,130,0.0,91.57,14.18,0.94,34.38,,85.0,14.01,12.13,15.16,1.11,0.97,,75.54
W260107093380101,165.0,Assam,Karbi Anglong,,Bokajan,Hidipi,26.0098667,93.63186111,2021,8.04,290.5,0.0,177.04,28.36,8.95,7.14,,165.0,50.04,9.68,9.54,9.4,0.64,,169.1
W262130090370001,166.0,Assam,Bongaigaon,,Baitamari,North salmara,26.3715,90.58558333,2021,8.03,495.6,0.0,122.1,283.6,6.75,0.08,,190.0,42.03,20.61,89.57,48.21,0.41,,273.2
W271518095141701,167.0,Assam,Dibrugarh,,Joypur,Jaipur Naharani,27.255,95.23805556,2021,8.03,175.5,0.0,152.62,10.635,7.81,1.46,,30.0,4.0,4.85,43.01,12.09,0.04,,92.77
W262955091043001,168.0,Assam,Barpeta,Howly,Sarupeta,26.4480278,91.07480556,2021.0,8.03,613.4,0,293.03,60.265,20.55,0.69,,320.0,72.06,33.95,4.06,6.37,0.6,,318.8,
W255600092423101,169.0,Assam,West Kaarbi-Anglong,Howraghat,Donkamokam,25.9327778,92.71,2021.0,8.02,124.8,0,79.36,28.36,1.39,0,,80.0,22.02,6.06,8.51,1.67,0.69,,71.46,
W263030091360001,170.0,Assam,Kamrup,Rangia,Darkuchi,26.5412778,91.60255556,2021.0,7.99,298.9,0,134.31,152.435,14.91,0,,85.0,20.02,8.49,87.84,33.53,0.34,,160.7,
W261400091370001,171.0,Assam,Kamrup,Hajo,Alikash Adarsh,26.2257778,91.61447222,2021.0,7.97,1387.0,0,390.71,326.14,15.32,0.53,,455.0,108.09,44.85,117.88,64.88,0.84,,773.4,
W260500091400001,172.0,Assam,Kamrup,Rani,Rani,26.0377,91.5839,2021.0,7.97,53.41,0,85.47,17.725,8.16,0.29,,25.0,6.0,2.42,24.55,12.11,0.2,,27.8,
W270730093543001,173.0,Assam,LAKHIMPUR,Karunabari,Laluk,27.11975,93.93016667,2021.0,7.97,460.3,0,109.89,38.995,11.43,42.47,,190.0,14.01,37.61,7.98,3.56,0.23,,248.7,
W243611092315101,174.0,Assam,Hailakandi,Lala,Lakhinagar,24.6031389,92.531361,2021.0,7.97,304.0,0,213.67,81.535,1.69,0.36,,225.0,22.02,41.25,21.22,2.92,0.37,,158.0,
W260227091213401,175.0,Assam,Kamrup,Chhaygaon,Chhaygaon,26.0411111,91.35972222,2021.0,7.96,266.7,0,109.89,24.815,55.36,3.89,,80.0,22.02,6.06,32.11,19.8,1,,140.5,
W261019092562001,176.0,Assam,Nagaon,Jugijan,Haldiati Sub Bt,26.1725,92.94333333,2021.0,7.96,201.6,0,85.47,35.45,5.1,0,,65.0,12.01,8.49,22.25,5.45,1.1,,116.1,
W262009092454101,177.0,Assam,Nagaon,Brahmpur,Hatenibatha,26.3361111,92.76138889,2021.0,7.95,581.6,0,317.45,155.98,1.06,0,,335.0,40.03,57.02,67.45,2.8,0.73,,349.7,
W264315091550001,178.0,Assam,Udalguri,Paneri,Paneri,26.732836,91.959796,2021.0,7.94,156.0,0,79.36,46.085,24.28,0,,75.0,10.01,12.13,25.85,7.98,0.36,,81.4,
W263430091540001,179.0,Assam,Udalguri,Kalaigaon,Kalaigaon,26.570366,91.981299,2021.0,7.94,260.3,0,109.89,198.52,13.83,0.2,,140.0,26.02,18.19,69.42,37.67,0.55,,140.3,
W230530080300001,180.0,Assam,Bongaigaon,Manikpur,Manikpur,26.4687778,90.80183333,2021.0,7.94,457.9,0,244.2,81.535,7.08,0,,260.0,70.06,20.6,13.63,6.08,0.89,,234.2,
W264505092083001,181.0,Assam,Darrang,Udalguri,Goroibari,26.7518611,92.14275,2021.0,7.93,125.7,0,115.99,56.72,9.2,0.04,,65.0,16.01,6.06,33.85,3.87,0.44,,67.68,
W260501092132101,182.0,Assam,Morigaon,Borhampur,Daponibari N,26.1438889,92.37416667,2021.0,7.93,74.43,0,42.73,10.635,4.46,0,,30.0,6.0,3.64,8.91,1.81,0.94,,43.11,
W260735092150801,183.0,Assam,Morigaon,Mayong,Deosal,26.1263889,92.2525,2021.0,7.92,65.01,0,42.73,10.635,4.19,0,,40.0,4.0,7.28,4.5,4.17,0.64,,36.73,
W271617094013101,184.0,Assam,LAKHIMPUR,Lakhimpur,Dejoo,27.2716389,94.02529722,2021.0,7.92,88.25,0,42.73,17.725,3.31,0,,45.0,12.01,3.63,3.97,2.12,0.52,,50.53,
W240618087404801,185.0,Assam,Goalpara,Dudhnoi,Damra,25.9291667,90.77638889,2021.0,7.89,128.3,6,48.84,109.895,6.24,0.5,,50.0,18.01,1.2,55.58,37.92,1.2,,65.99,
W255830091143001,186.0,Assam,Kamrup,Boko,Boko,25.9833333,91.245,2021.0,7.87,208.5,0,54.94,24.815,35.06,0.19,,95.0,26.02,7.27,13.51,2.76,1,,109.6,
W260831093511001,187.0,Assam,Karbi Anglong,Bokajan,Bokajan I,26.0286111,93.76722222,2021.0,7.86,212.6,0,48.84,42.54,2.88,25.07,,75.0,22.02,4.84,21.34,1.0,0.31,,123.7,
W262730091370001,188.0,Assam,Kamrup,Rangia,Rangia,26.4375889,91.606975,2021.0,7.83,858.4,0,347.98,219.79,20.09,0.88,,320.0,14.01,69.17,78.7,57.78,0.63,,464.5,
W265041092191601,189.0,Assam,Udalguri,Mazbat,Hatitopagaon,26.7652778,92.31,2021.0,7.8,227.3,0,61.05,95.715,30.79,3.38,,100.0,20.02,12.13,36.83,15.31,0.38,,120.0,
W264202092130001,190.0,Assam,Udalguri,Rowta,Rowta chariali,26.711652,92.205556,2021.0,7.8,723.7,0,189.25,262.33,6.73,2.19,,175.0,38.03,19.4,97.87,79.86,0.8,,397.0,
W264325091590001,191.0,Assam,Udalguri,Paneri,Bengbari,26.732836,92.20763889,2021.0,7.77,144.0,0,85.47,77.99,32.93,0,,115.0,14.01,19.41,31.07,9.97,0.28,,77.69,
W261723091424301,192.0,Assam,Kamrup,Bejera,Dora Kahara,26.301479,91.59475,2021.0,7.77,536.0,0,219.78,53.175,84.79,1.74,,205.0,46.04,21.82,40.08,17.71,1,,282.1,
W262913090375901,193.0,Assam,Bongaigaon,Baitamari,Chaprakata (Dankinamari),26.48725,90.63341667,2021.0,7.76,260.7,0,170.94,49.63,6.75,0,,180.0,50.04,13.33,12.37,2.12,0.38,,138.4,
W235153091200701,194.0,Assam,Karimganj,Old Agartala,R.K nagar,24.56658,92.4610556,2021.0,7.76,145.7,0,122.1,113.44,1.4,0.51,,125.0,30.02,12.12,39.35,20.38,0.2,,75.28,
W261148093474301,195.0,Assam,Karbi Anglong,Bokajan,Saphapani,26.1963889,93.79527778,2021.0,7.7,89.05,0,36.63,31.905,0,0,,35.0,10.01,2.42,18.78,2.33,0.35,,51.59,
W255939093243801,196.0,Assam,Karbi Anglong,Bokajan,Mohendijua,25.9945,93.41102778,2021.0,7.7,125.4,0,24.42,38.995,2.25,0.77,,45.0,12.01,3.63,13.04,2.18,0.26,,73.19,
W261315093503201,197.0,Assam,Karbi Anglong,Bokajan,Deopani,26.2213889,93.8225,2021.0,7.68,290.3,0,158.73,38.995,7.86,0,,140.0,38.03,10.9,24.01,3.18,0.57,,167.8,
W264253091424301,198.0,Assam,Baksa,Goreswar,Bangalipara,26.715,93.8225,2021.0,7.67,462.0,0,250.3,38.995,36.14,1.08,,275.0,30.02,48.53,3.88,1.88,0.5,,246.0,
W270200093543001,199.0,Assam,LAKHIMPUR,Bihpuria,Bihpuria,27.0235194,93.8225,2021.0,7.67,149.3,0,91.57,10.635,0,0.26,,85.0,24.02,6.06,3.71,4.02,0.36,,80.14,
W261521092134601,200.0,Assam,Morigaon,Mayong,Garmari Gaon,26.2630556,93.8225,2021.0,7.63,251.9,0,67.15,31.905,10.85,34.1,,140.0,28.02,16.98,5.22,2.19,0.54,,146.1,
W255745093350601,201.0,Assam,Karbi Anglong,Bokajan,Dillai,25.9658333,93.8225,2021.0,7.63,711.1,0,158.73,145.345,35.15,1.19,,265.0,62.05,26.67,61.43,6.84,0.42,,412.2,
W260848092095601,202.0,Assam,Kamrup,Dimaria,Khetri II,26.1466667,92.16555556,2021.0,7.61,328.9,0,134.31,42.54,30.6,6.95,,125.0,18.01,19.41,24.22,20.2,0.4,,187.8,
W260348093110604,203.0,Assam,Karbi Anglong,Langsomepi,Bokoliaghat,26.0588889,93.2025,2021.0,7.6,160.9,0,36.63,53.175,2.17,14.65,,30.0,8.01,2.42,27.4,14.84,0.32,,93.24,
W264921092471001,204.0,Assam,SONITPUR,Balipara,Balipara,26.8230556,92.78186111,2021.0,7.57,256.2,0,109.89,24.815,19.93,0.21,,90.0,24.02,7.27,17.33,16.21,0.23,,136.7,
W263750091341501,205.0,Assam,Baksa,Tamulpur,Tamulpur,26.6065278,91.58047222,2021.0,7.57,854.3,0,366.29,262.33,6.48,11.01,,350.0,42.03,59.45,84.67,68.87,0.58,,471.5,
W260115091194001,206.0,Assam,Kamrup,Chhaygaon,Bamunigaon,26.0236111,91.32444444,2021.0,7.56,169.1,0,103.78,28.36,13.29,0.49,,65.0,18.01,4.85,23.71,8.18,0.89,,90.03,
W264353091332001,207.0,Assam,Baksa,Tamulpur,Kumarikata,26.7327778,91.55636111,2021.0,7.56,651.7,0,305.24,194.975,7.05,3.08,,245.0,40.03,35.17,78.85,56.99,0.46,,351.0,
W245820092350001,208.0,Assam,Cachar,Kalain,Kalain,24.9681389,92.40863889,2021.0,7.56,486.0,0,195.36,248.15,12.49,1.84,,260.0,42.03,37.6,76.31,42.26,0.27,,252.3,
W262200090380001,209.0,Assam,Bongaigaon,Srijangram,Abhayapuri,26.3385278,90.66238889,2021.0,7.56,216.0,0,79.36,141.8,8.45,0.21,,60.0,20.02,2.42,66.86,34.03,0.2,,114.5,
W260348093110605,210.0,Assam,Karbi Anglong,Langsomepi,Dishobai,26.0099444,93.26277778,2021.0,7.56,341.1,0,244.2,28.36,3.38,6.19,,155.0,44.04,10.9,36.12,11.73,0.69,,197.9,
W262830090541001,211.0,Assam,Barpeta,Chakchaka,Sorbhog,26.4724722,90.88069444,2021.0,7.55,408.8,0,177.04,131.165,30.21,0.39,,185.0,70.06,2.39,52.75,26.2,0.5,,211.2,
W271800095513001,212.0,Assam,Tinsukia,Margherita,Lekhapani,27.319722,95.818056,2021.0,7.55,150.5,0,73.26,10.635,16.86,1,,85.0,18.01,9.7,2.83,3.78,0.08,,80.01,
W262930090093001,213.0,Assam,Kokrajhar,Dotoma,Dotma,26.4846111,90.16630556,2021.0,7.54,241.0,0,134.31,42.54,33.58,0,,165.0,46.04,12.11,7.82,3.46,0.42,,126.6,
W263630092230001,214.0,Assam,SONITPUR,Balipara,Barchola,26.6054167,92.38016667,2021.0,7.54,163.6,0,54.94,28.36,8.71,12.42,,55.0,10.01,7.28,14.73,7.15,0.17,,87.03,
W271952095511101,215.0,Assam,Tinsukia,Margherita,Tirap Gate,27.333138,95.848262,2021.0,7.51,181.4,0,48.84,21.27,20.39,0,,70.0,10.01,10.92,5.28,2.22,0.08,,96.38,
W245920092300001,216.0,Assam,Cachar,Kalain,Digharkhal,24.9994167,92.51302778,2021.0,7.45,370.8,0,85.47,326.14,51.28,5.14,,410.0,72.06,55.79,54.94,24.73,0.23,,200.6,
W264800092543501,217.0,Assam,SONITPUR,Naduar,Tupia,26.7990278,92.91105556,2021.0,7.44,231.2,0,134.31,7.09,10.73,4.46,,115.0,20.02,15.77,1.86,16.06,0.22,,123.4,
W261900093523001,218.0,Assam,Karbi Anglong,Bokajan,Silanijan,26.3216667,93.87222222,2021.0,7.44,178.5,0,24.42,49.63,10.72,13.56,,45.0,4.0,8.49,27.5,10.88,0.29,,102.2,
W262044092445401,219.0,Assam,Nagaon,Rupohi,Gomotha,26.3452778,92.74861111,2021.0,7.42,596.6,0,378.5,49.63,13.35,22.38,,235.0,6.0,53.4,54.56,20.82,0.65,,335.7,
W264208092282801,220.0,Assam,SONITPUR,Dhekiajuli,Dhekiajuli,26.7031389,92.47083333,2021.0,7.39,198.1,0,79.36,24.815,13.97,7.27,,70.0,14.01,8.49,15.06,7.86,0.07,,105.6,
W260406091362101,221.0,Assam,Kamrup,Rani,Rani II,26.041,91.585,2021.0,7.35,71.23,0,73.26,21.27,8.28,1.04,,40.0,6.0,6.07,15.81,12.39,0.49,,38.21,
W263330090230001,222.0,Assam,Chirang,Sidli,Garubassa,26.5691667,90.37527778,2021.0,7.35,126.7,0,67.15,77.99,13.23,3.82,,55.0,14.01,4.85,46.6,7.4,0.18,,65.89,
W243745092402801,223.0,Assam,Hailakandi,Algapur,Burakhai,24.6289722,92.67444444,2021.0,7.33,213.5,0,97.68,120.53,1.84,0.43,,85.0,26.02,4.84,49.72,28.72,0.24,,109.0,
W263800090230001,224.0,Assam,Chirang,Bengtol,Runikhata,26.6348611,90.38402778,2021.0,7.3,106.9,0,24.42,46.085,7.2,6.64,,80.0,20.02,7.27,2.29,3.21,0.15,,57.4,
W272337095535701,225.0,Assam,Tinsukia,Margherita,Jagun,27.383005,95.903574,2021.0,7.29,49.38,0,24.42,10.635,2.04,3.31,,30.0,4.0,4.85,4.42,0.69,0.14,,26.17,
W263409090090001,226.0,Assam,Kokrajhar,Dotoma,Serfanguri,26.5541667,90.15277778,2021.0,7.17,151.4,0,91.57,77.99,10.18,0.66,,200.0,20.02,36.4,5.09,3.15,0.24,,79.08,
W243909092531001,227.0,Assam,Cachar,Palanghat,Palanghat,25.2573056,91.74127778,2021.0,7.07,576.1,0,207.57,219.79,20.38,0.14,,325.0,44.04,52.16,47.15,18.58,0.49,,304.7,
W255810090564001,228.0,Assam,Goalpara,Rongjuli,Rongjuli,25.9672222,90.925,2021.0,7.06,136.8,0,152.62,70.9,9.55,0.31,,105.0,38.03,2.41,48.84,18.98,0.27,,70.86,
W245200092340001,229.0,Assam,Karimganj,Badarpur,Badarpur,24.8743889,92.58333333,2021.0,7,289.3,0,48.84,198.52,11.59,2,,90.0,30.02,3.63,77.09,34.75,0.17,,147.4,
W245620092443001,230.0,Assam,Cachar,Borkhola,Borkhola,24.6070556,92.72716667,2021.0,6.71,224.5,0,67.15,191.43,8.02,0.79,,170.0,28.02,24.26,65.16,25.19,0.22,,117.7,
W243330092480001,231.0,Assam,Cachar,Barjalenga,Borjalinga,24.6651111,92.71877778,2021.0,6.7,88.52,0,85.47,60.265,2.17,0.93,,50.0,8.01,7.28,33.1,16.4,0.11,,47.23,
W263400090180001,232.0,Assam,Kokrajhar,Kokrajhar,Bisumari,26.5608333,90.29138889,2021.0,6.69,73.65,0,61.05,56.72,16.02,3.22,,150.0,10.01,30.33,2.96,3.84,0.16,,38.53,
W244725093001901,233.0,Assam,Cachar,Lakhipur,Fulertol,24.7903056,93.0055,2021.0,6.61,224.8,0,85.47,148.89,13.61,0.26,,60.0,14.01,6.06,67.95,46.25,0.2,,120.3,
W221445068573001,234.0,Assam,Goalpara,Balijana,Dwarka,26.0563889,90.49527778,2021.0,6.54,128.2,0,85.47,116.985,10.38,0.66,,95.0,20.02,10.91,48.98,17.11,0.16,,67.49,
W245805092343101,235.0,Assam,Cachar,Palanghat,Atalbasti,24.6485833,92.88222222,2021.0,6.35,164.2,0,36.63,134.71,9.32,1.54,,40.0,10.01,3.64,55.34,38.53,0.15,,88.11,
W260046090420201,236.0,Assam,Goalpara,Krishnai,Salpara,26.0127778,90.70083333,2021.0,6.2,80.24,0,54.94,127.62,7.7,0.71,,55.0,14.01,4.85,55.74,27.28,0.09,,41.76,
W260200090253001,237.0,Assam,Goalpara,Balijana,Baida,26.0258333,90.41638889,2021.0,6.02,60.16,0,42.73,85.08,7.87,0.62,,65.0,10.01,9.7,35.24,5.51,0.16,,31.73,
W252105091233801,238.0,Assam,Cachar,Barjalenga,Kathaltila,25.210588,91.233857,2021.0,5.97,70.89,0,24.42,77.99,9.55,0.82,,55.0,4.0,10.92,28.15,11.42,0.21,,38.77,
W250600086294501,239.0,Assam,Cachar,Lakhipur,Tarapur,24.8298056,92.97966667,2021.0,5.1,297.1,0,30.52,219.79,5.52,1.01,,190.0,30.02,27.9,45.9,27.38,0.16,,156.7,
W244503085400701,240.0,Bihar,Saran,Ekma,Bishunpur,25.97,84.6,2021.0,8.2,650.0,0,171.0,53.0,53,65,0,170.0,50.0,11.0,65.0,13.0,0.38,,423.0,
W254818084431201,241.0,Bihar,Saran,Chapra,Chirand,25.81,84.72,2021.0,8.18,642.0,0,195.0,82.0,23,30,0,190.0,66.0,6.0,52.0,15.0,0.71,,417.0,
W221719084182901,242.0,Bihar,Saran,Ekma,Ekma,25.97,84.55,2021.0,8.2,461.0,0,128.0,67.0,14,12,0,120.0,28.0,12.0,46.0,6.95,0.53,,300.0,
W254930084533001,243.0,Bihar,Saran,Garkha,Garkha,25.83,84.89,2021.0,8.19,398.0,0,116.0,43.0,11,33,0,110.0,30.0,9.0,35.0,7.25,0.34,,259.0,
W260340084413001,244.0,Bihar,Saran,Baniapur,Manopali,26.06,84.69,2021.0,8.12,929.0,0,262.0,107.0,37,71,0,285.0,106.0,23.0,76.0,12.0,0.68,,604.0,
W255845084521501,245.0,Bihar,Saran,Marhaura,Marhaura,25.98,84.87,2021.0,8.14,617.0,0,189.0,36.0,94,10,0.32,200.0,60.0,12.0,45.0,11.0,0.41,,401.0,
W254800084511901,246.0,Bihar,Saran,Garkha,Minapur,25.8,84.86,2021.0,7.97,1470.0,0,329.0,192.0,95,75,0,415.0,136.0,18.0,122.0,18.0,0.38,,956.0,
W254933084434001,247.0,Bihar,Saran,Jalalpur,Nagra,25.83,84.73,2021.0,8.13,511.0,0,244.0,11.0,11,31,0,170.0,50.0,11.0,32.0,12.0,0.47,,332.0,
W260944084405101,248.0,Bihar,Siwan,Bhagwanpur,Malmalia Chowk,26.16,84.68,2021.0,8.14,320.0,0,92.0,25.0,23,31,0,130.0,40.0,7.0,5.0,14.0,0.63,,208.0,
W260613084403301,249.0,Bihar,Siwan,Bhagwanpurhat,Sarripatti,26.1,84.68,2021.0,7.87,1805.0,0,384.0,231.0,168,105,0,435.0,150.0,15.0,183.0,54.0,0.21,,1173.0,
W261145084291501,250.0,Bihar,Siwan,Barharia,Tarwara,26.2,84.49,2021.0,8.13,678.0,0,232.0,75.0,24,21,0,215.0,72.0,9.0,52.0,6.5,0.75,,441.0,
W255237085223701,251.0,Bihar,Vaishali,Goraul,Baksama,25.88,85.38,2021.0,8.14,404.0,0,201.0,14.0,4.23,11,0,145.0,54.0,2.0,25.0,2.1,0.39,,263.0,
W255530085202801,252.0,Bihar,Vaishali,Goraul,Chandpur Kala,25.93,85.34,2021.0,8.17,607.0,0,244.0,53.0,17,12,0,205.0,70.0,7.0,42.0,6.3,0.21,,395.0,
W255615085204501,253.0,Bihar,Vaishali,Garaul,Garaul,25.94,85.35,2021.0,8.2,693.0,0,159.0,124.0,17,26,0,220.0,66.0,11.0,51.0,12.0,0.87,,450.0,
W185230079173001,254.0,Bihar,Vaishali,Vaishali,Hajipur,25.7,85.23,2021.0,8.16,556.0,0,189.0,28.0,35,51,0,205.0,70.0,7.0,30.0,5.5,0.61,,361.0,
W252620086043701,255.0,Bihar,Vaishali,Goraul,Harpur,25.92,85.38,2021.0,8.13,560.0,0,207.0,21.0,47,42,0,215.0,64.0,13.0,29.0,4.62,0.72,,364.0,
W254100085120002,256.0,Bihar,Vaishali,Bidupur,Kachanpur,25.68,85.2,2021.0,8.16,426.0,0,226.0,14.0,4.81,9.54,0.09,140.0,44.0,7.0,31.0,6.25,0,,277.0,
W253857085281701,257.0,Bihar,Vaishali,Mahnar,Kumharkal,25.65,85.47,2021.0,8.07,1089.0,0,378.0,46.0,132,14,0,360.0,132.0,7.0,71.0,9.27,0,,708.0,
W253615085310001,258.0,Bihar,Vaishali,Mahnar,Mahnar,25.6,85.52,2021.0,8.15,438.0,0,116.0,25.0,35,65,0,105.0,32.0,6.0,46.0,10.0,0,,285.0,
W253749085214301,259.0,Bihar,Vaishali,Bidupur,Mathura,25.63,85.36,2021.0,8.12,517.0,0,177.0,11.0,31,82,0,155.0,38.0,15.0,44.0,6.25,0,,336.0,
W254814085355201,260.0,Bihar,Vaishali,Patepur,Mushari Tola,25.8,85.6,2021.0,8.13,834.0,0,250.0,50.0,58,97,0,285.0,108.0,4.0,58.0,3.1,0,,542.0,
W254954085105101,261.0,Bihar,Vaishali,Lalganj,Namidh,25.83,85.18,2021.0,8.15,850.0,0,311.0,71.0,34,44,0,300.0,110.0,6.0,53.0,9.78,0,,553.0,
W254629085142001,262.0,Bihar,Vaishali,Bhagwanpur (Sarai),Nonepur,25.78,85.24,2021.0,8.14,769.0,0,275.0,28.0,58,75,0,275.0,96.0,9.0,47.0,5.4,0,,500.0,
W253942085273901,263.0,Bihar,Vaishali,Sahdei Bujurg,Sahdei Bujurg,25.66,85.46,2021.0,8.02,1245.0,0,329.0,75.0,180,75,0,395.0,134.0,15.0,98.0,8.2,0,,809.0,
W254100085120001,264.0,Bihar,Vaishali,Hajipur,Sahjadpur,25.68,85.2,2021.0,8.16,565.0,0,268.0,18.0,5.49,43,0,200.0,54.0,16.0,34.0,7.52,0,,367.0,
W255059085263101,265.0,Bihar,Vaishali,Mahua,Tariya Supaul,25.85,85.44,2021.0,8.19,508.0,0,140.0,43.0,21,67,0,210.0,70.0,9.0,12.0,11.0,0,,330.0,
W255755085080301,266.0,Bihar,Vaishali,Vaishali,Thukaiya,25.97,85.13,2021.0,8.12,452.0,0,159.0,11.0,40,50,0,150.0,46.0,9.0,28.0,11.0,0,,294.0,
W260949084594701,267.0,Bihar,Muzaffarpur,Paroo,Dewaria,26.16,85,2021.0,8.19,798.0,0,189.0,153.0,17,10,0,340.0,102.0,21.0,23.0,5.7,0,,519.0,
W261743084571301,268.0,Bihar,Muzaffarpur,Sahebganj,Rajwara,26.3,84.95,2021.0,8.14,630.0,0,293.0,11.0,46,9.48,0.12,220.0,68.0,12.0,39.0,6.65,0,,410.0,
W262005084511901,269.0,Bihar,E. Champaran,Kesaria,Lala Chapra,26.33,84.86,2021.0,8.13,535.0,0,140.0,39.0,36,75,0,135.0,42.0,7.0,50.0,18.0,0.63,,348.0,
W215611075081001,270.0,Bihar,E. Champaran,Kalyanpur,Rajpur,26.51,84.84,2021.0,8.16,558.0,0,128.0,110.0,27,10,0,150.0,32.0,17.0,59.0,17.0,0.42,,363.0,
W253814085002601,271.0,Bihar,Patna,Danapur,Khaspur,25.64,85.01,2021.0,8.19,356.0,0,177.0,14.0,6.66,2.82,0,125.0,40.0,6.0,20.0,1.95,0.19,,231.0,
W253441084532402,272.0,Bihar,Patna,Bhita,Bishambharpur,25.58,84.89,2021.0,8.14,310.0,0,134.0,18.0,8.19,0.94,0,135.0,32.0,13.0,6.0,1.94,0.36,,202.0,
W253109084511501,273.0,Bihar,Patna,Bihta,Amhara,25.52,84.85,2021.0,8.14,349.0,0,159.0,18.0,8.54,1.04,0,140.0,48.0,5.0,12.0,1.76,0,,227.0,
W252930084515201,274.0,Bihar,Patna,Bikram,Mariyawa,25.49,84.86,2021.0,8.16,256.0,0,104.0,14.0,5.19,20,0,95.0,32.0,4.0,12.0,1.46,0,,166.0,
W252837084493301,275.0,Bihar,Patna,Bikram,Din Bigha,25.48,84.83,2021.0,8.13,425.0,0,226.0,11.0,2.29,6.89,0,170.0,56.0,7.0,14.0,1.18,0.21,,276.0,
W253615085121501,276.0,Bihar,Patna,Patna Sadar,Patna-City,25.6,85.12,2021.0,8.1,1054.0,0,317.0,121.0,54,46,0,305.0,54.0,41.0,76.0,36.0,0.45,,685.0,
W253015085174501,277.0,Bihar,Patna,Fatwa,Fatuha,25.5,85.3,2021.0,8.16,507.0,0,189.0,43.0,20,20,0,170.0,62.0,4.0,35.0,2.21,0,,330.0,
W252745085314501,278.0,Bihar,Patna,Bakhtiarpur,Bakhtiarpur,25.46,85.53,2021.0,8.11,677.0,0,305.0,46.0,15,2.22,0,250.0,24.0,46.0,34.0,4.63,0,,440.0,
W253015085174502,279.0,Bihar,Patna,Mokama,Mokama,25.5,85.3,2021.0,8.17,373.0,0,128.0,28.0,34,1.12,0,120.0,40.0,5.0,24.0,3.51,0.34,,242.0,
W253018084574001,280.0,Bihar,Patna,Naubatpur,Snehitola,25.51,85.73,2021.0,8.06,808.0,0,201.0,96.0,52,60,0,270.0,68.0,24.0,55.0,6.77,0,,525.0,
W252114085592801,281.0,Bihar,Patna,Mokama,Maranchi,25.35,85.99,2021.0,8.01,673.0,0,232.0,60.0,41,9,0,200.0,56.0,15.0,58.0,3.08,0,,437.0,
W253815084531501,282.0,Bihar,Patna,Maner,Maner,25.64,84.89,2021.0,7.99,687.0,0,177.0,96.0,33,28,0,270.0,44.0,39.0,31.0,2.32,0.09,,447.0,
W252515084521301,283.0,Bihar,Patna,Bikram,Noniatola,25.42,84.87,2021.0,7.91,954.0,0,317.0,96.0,41,40,0,340.0,62.0,45.0,56.0,5.63,0.31,,620.0,
W252030084514501,284.0,Bihar,Patna,Paliganj,Bharatpura,25.34,84.86,2021.0,8.14,719.0,0,323.0,43.0,11,20,0,195.0,66.0,7.0,68.0,6.95,0.81,,467.0,
W252000084493601,285.0,Bihar,Patna,Bhita,Bali Pakar,25.33,84.83,2021.0,8.11,1524.0,0,506.0,142.0,76,59,2.08,500.0,102.0,60.0,90.0,46.0,1.28,,991.0,
W252701085051601,286.0,Bihar,Patna,Punpun,Deokali,25.45,85.09,2021.0,8.16,375.0,0,165.0,21.0,11,3.06,0,150.0,32.0,17.0,15.0,1.99,0,,244.0,
W252739085071801,287.0,Bihar,Patna,Dhanrua,Nima halt,25.46,85.12,2021.0,8.17,423.0,0,201.0,21.0,8.19,4.32,0,160.0,22.0,26.0,18.0,1.6,0.43,,275.0,
W253217085013501,288.0,Bihar,Patna,Phulwari Sharif,Hulas Chak,25.54,85.03,2021.0,8.04,1102.0,0,403.0,117.0,41,6.94,0,300.0,14.0,64.0,110.0,6.5,0,,716.0,
W253430085073501,289.0,Bihar,Patna,Phulwari Sharif,Etwarpur,25.58,85.13,2021.0,8.16,536.0,0,165.0,53.0,21,29,0,210.0,34.0,30.0,22.0,3.02,0.18,,348.0,
W253549086131401,290.0,Bihar,Patna,Maner,Simri,25.61,84.91,2021.0,8.01,481.0,0,128.0,64.0,22,21,0,190.0,22.0,33.0,18.0,1.36,0.1,,313.0,
W252648084512101,291.0,Bihar,Patna,Bikram,Bikram,25.45,84.86,2021.0,8.03,307.0,0,79.0,25.0,36,16,0,120.0,36.0,7.0,11.0,1.09,0.14,,200.0,
W253604085093901,292.0,Bihar,Patna,Patna rural,Kankarbagh,25.6,85.16,2021.0,8.03,694.0,0,165.0,121.0,23,4.08,0,285.0,42.0,44.0,24.0,2.59,0.77,,451.0,
W253600085110601,293.0,Bihar,Patna,Patna rural,Kumhrar,25.6,85.19,2021.0,8.14,364.0,0,140.0,32.0,17,1.76,0,140.0,34.0,13.0,15.0,2.91,0.31,,237.0,
W253709085085401,294.0,Bihar,Patna,Patna rural,Gandhi maidan,25.62,85.15,2021.0,8.04,308.0,0,153.0,11.0,5.17,1.13,0,115.0,34.0,15.0,15.0,1.95,0.31,,200.0,
W253710085063801,295.0,Bihar,Patna,Patna rural,A N College,25.62,85.11,2021.0,7.98,295.0,0,134.0,18.0,8.98,1.05,0,110.0,22.0,13.0,14.0,1.15,0,,192.0,
W253011084574001,296.0,Bihar,Patna,Naubatpur,Naubatpur,25.5,84.96,2021.0,8.08,336.0,0,134.0,25.0,14,1.29,0,130.0,32.0,12.0,14.0,3.68,0,,218.0,
W231923083211101,297.0,Bihar,Patna,Patna Sadar,Kurji,25.64,85.11,2021.0,8.04,374.0,0,165.0,14.0,19,1.69,0,145.0,28.0,18.0,15.0,2.31,0.63,,243.0,
W251739084421001,298.0,Bihar,Arwal,Arwal,Dirpal Bigha,25.29,84.7,2021.0,7.99,261.0,0,92.0,11.0,25,12,0,110.0,32.0,7.0,8.0,0.98,0.16,,170.0,
W250854084422501,299.0,Bihar,Arwal,Karpi,Bairbigha,25.15,84.71,2021.0,8.04,1184.0,0,348.0,142.0,61,39,0,260.0,24.0,49.0,142.0,12.0,0.08,,770.0,
W251230084460001,300.0,Bihar,Arwal,Arwal,Imamganj,25.21,84.77,2021.0,7.98,684.0,0,159.0,114.0,21,25,0,280.0,30.0,50.0,25.0,1.4,0.62,,445.0,
W251200084531501,301.0,Bihar,Arwal,Ratni Faridpur,Jhunathi,25.2,84.89,2021.0,8.04,411.0,0,165.0,28.0,25,3.19,0,160.0,54.0,6.0,17.0,1.84,0.24,,267.0,
W250745084491501,302.0,Bihar,Arwal,Kurtha,Kurtha bdo,25.13,84.82,2021.0,8.09,836.0,0,281.0,110.0,20,6.15,0,345.0,60.0,47.0,26.0,4.63,0.44,,543.0,
W251345085061501,303.0,Bihar,Jehanabad,Modanganj,Kako,25.23,85.1,2021.0,8.02,1579.0,0,598.0,131.0,72,42,0,420.0,58.0,67.0,127.0,65.0,0.6,,1026.0,
W250945085063001,304.0,Bihar,Jehanabad,Ghoshi,Ghoshi,25.16,85.11,2021.0,8.13,532.0,0,195.0,39.0,22,22,0,225.0,50.0,24.0,16.0,0.92,0.6,,346.0,
W250509085085201,305.0,Bihar,Jehanabad,Hulasgunj,Hulasganj,25.09,85.15,2021.0,7.98,787.0,0,220.0,110.0,36,22,0,290.0,38.0,47.0,41.0,2.12,0.49,,512.0,
W250400085004801,306.0,Bihar,Jehanabad,Makhdumpur,Alubikha,25.07,85.01,2021.0,8.06,833.0,0,293.0,99.0,16,12,0.93,300.0,40.0,49.0,49.0,3.02,0.57,,541.0,
W251232084591101,307.0,Bihar,Jehanabad,Jehanabad,Gaurakhini,25.21,84.99,2021.0,8.03,1049.0,0,305.0,131.0,72,13,0,375.0,20.0,79.0,63.0,2.61,0.45,,682.0,
W245505084460401,308.0,Bihar,Gaya,Konch,Konch,24.92,84.77,2021.0,8.1,381.0,0,153.0,25.0,12,19,0,150.0,46.0,9.0,15.0,1.77,0.21,,248.0,
W245645084510001,309.0,Bihar,Gaya,Tekari,Tekari,24.95,84.85,2021.0,8.17,946.0,0,153.0,181.0,36,54,0,355.0,60.0,50.0,48.0,6.92,0.29,,615.0,
W244600084223001,310.0,Bihar,Aurangabad,Aurangabad,Aurangabad,24.77,84.38,2021.0,8.05,1388.0,0,336.0,231.0,30,59,0,495.0,54.0,87.0,75.0,13.0,0.39,,902.0,
W250130084253001,311.0,Bihar,Aurangabad,Daudnagar,Daudnagar,25.03,84.43,2021.0,8.11,1133.0,0,281.0,202.0,22,31,0,425.0,30.0,85.0,51.0,18.0,0.48,,736.0,
W245415084233001,312.0,Bihar,Aurangabad,Obra,Obra,24.9,84.39,2021.0,8.13,360.0,0,73.0,43.0,22,39,0,135.0,38.0,10.0,15.0,1.3,0.39,,234.0,
W245330084143001,313.0,Bihar,Aurangabad,Barun,Barun,24.89,84.24,2021.0,8.1,511.0,0,140.0,39.0,49,28,0,210.0,26.0,35.0,19.0,1.63,0.39,,332.0,
W244030084271501,314.0,Bihar,Aurangabad,Deo,Deo1,24.68,84.45,2021.0,7.91,1013.0,0,397.0,60.0,55,37,0,355.0,24.0,72.0,62.0,9.63,0.84,,658.0,
W245902084385001,315.0,Bihar,Aurangabad,Goh,Dhobi Tola_Goh,24.98,84.65,2021.0,8.16,544.0,0,226.0,28.0,13,31,0,180.0,26.0,28.0,36.0,1.75,1.79,,354.0,
W245148084383101,316.0,Bihar,Aurangabad,Rafiganj,Tineri Morh,24.86,84.64,2021.0,8.01,947.0,0,268.0,135.0,42,19,0,270.0,26.0,50.0,85.0,9.85,0.63,,616.0,
W252600085184501,317.0,Bihar,Patna,Daniyawan,Daniyawan,25.43,85.31,2021.0,7.23,480.0,0,189.0,46.0,14,1.03,0,160.0,26.0,23.0,35.0,1.1,0.24,16,312.0,
W250242085155601,318.0,Bihar,Nalanda,Neemchak,Ankuri Bazar,25.05,85.27,2021.0,8.01,606.0,0,275.0,46.0,5.64,3.73,0,210.0,16.0,41.0,38.0,1.26,0.57,15,394.0,
W250621085250601,319.0,Bihar,Nalanda,Silao,Bhui,25.11,85.42,2021.0,8.01,2670.0,0,695.0,348.0,233,29,0,890.0,14.0,208.0,168.0,41.0,0.36,15,1736.0,
W213709082023301,320.0,Bihar,Nalanda,Chandi,Chandi,25.32,85.49,2021.0,7.46,720.0,0,372.0,18.0,14,1.79,0,205.0,12.0,43.0,67.0,2.57,0.81,17,468.0,
W251234085275301,321.0,Bihar,Nalanda,Noorsarai,Daudpur,25.21,85.46,2021.0,8.13,615.0,0,299.0,28.0,8.9,14,0,215.0,12.0,45.0,38.0,4.48,0.28,16,400.0,
W251354085492501,322.0,Bihar,Nalanda,Rahui,Doiya,25.23,85.5,2021.0,8.06,638.0,0,262.0,36.0,45,3.5,0,140.0,18.0,23.0,76.0,4.17,0.17,15,415.0,
W250130085314501,323.0,Bihar,Nalanda,Giriak,Giriak,25.03,85.53,2021.0,7.5,760.0,0,372.0,25.0,22,20,0,285.0,20.0,57.0,38.0,3.9,0.39,19,494.0,
W251815085171501,324.0,Bihar,Nalanda,Hilsa,Hilsa,25.3,85.29,2021.0,7.6,847.0,0,372.0,64.0,15,5.6,0,305.0,16.0,64.0,50.0,6.8,0.29,13,551.0,
W174644077010201,325.0,Bihar,Nalanda,Islampur,Islampur,25.14,85.21,2021.0,7.7,599.0,0,317.0,18.0,10,1.84,0,160.0,18.0,28.0,58.0,4.93,0.3,1,389.0,
W251144085412801,326.0,Bihar,Nalanda,Asthawan,Jangipur,25.2,85.69,2021.0,7.97,472.0,0,183.0,36.0,17,21,0,160.0,20.0,27.0,31.0,2.16,0.03,12,307.0,
W252207085160201,327.0,Bihar,Nalanda,Hilsa,Karaiparsurai,25.37,85.27,2021.0,7.62,494.0,0,226.0,28.0,17,1.12,0,165.0,12.0,33.0,32.0,3.24,0.1,16,321.0,
W250922085264901,328.0,Bihar,Nalanda,Silao,Kundalpur,25.16,85.45,2021.0,7.92,926.0,0,482.0,21.0,20,8.27,0,140.0,20.0,22.0,140.0,11.0,0.54,17,602.0,
W251135085293804,329.0,Bihar,Nalanda,Bihar Sharif,Maghra,25.19,85.49,2021.0,7.53,1267.0,0,415.0,131.0,81,29,0,350.0,16.0,75.0,99.0,48.0,0.21,13,824.0,
W251211085330801,330.0,Bihar,Nalanda,Bihar Sharif,Muraura,25.2,85.55,2021.0,7.8,1359.0,0,537.0,107.0,54,27,0,335.0,20.0,69.0,135.0,36.0,0.32,14,883.0,
W250808085264401,331.0,Bihar,Nalanda,Rajgir,Nalanda,25.14,85.45,2021.0,7.91,1223.0,0,482.0,60.0,109,21,0,285.0,14.0,61.0,140.0,11.7,0.61,14,795.0,
W251205085210801,332.0,Bihar,Nalanda,Ekangarsarai,Parwalpur 1,25.2,85.35,2021.0,7.96,1577.0,0,537.0,181.0,63,29,0,395.0,50.0,66.0,150.0,41.0,1.01,13,1025.0,
W250600085330001,333.0,Bihar,Nalanda,Giriak,Pawapuri,25.1,85.55,2021.0,7.86,741.0,0,342.0,53.0,10,4.61,0,210.0,20.0,39.0,67.0,5.55,0.73,13,482.0,
W250120085231501,334.0,Bihar,Nalanda,Rajgir,Pilkhi,25.02,85.39,2021.0,7.7,1112.0,0,464.0,92.0,35,2.86,0,285.0,44.0,43.0,109.0,14.0,0.4,13,723.0,
W250115085241501,335.0,Bihar,Nalanda,Rajgir,Rajgir,25.02,85.4,2021.0,7.5,825.0,0,305.0,78.0,25,30,0,315.0,20.0,64.0,37.0,9.51,0.11,18,536.0,
W251024085303301,336.0,Bihar,Nalanda,Bihar Sharif,Ranabigha,25.17,85.51,2021.0,7.41,1639.0,0,415.0,213.0,136,41,0,440.0,14.0,98.0,150.0,32.0,0.4,14,1065.0,
W251234085410401,337.0,Bihar,Nalanda,Asthawan,Sare,25.21,85.68,2021.0,7.7,777.0,0,323.0,43.0,49,4.62,0,295.0,44.0,45.0,39.0,3.7,0.2,14,505.0,
W251435085483601,338.0,Bihar,Nalanda,Sarmera,Sarmera,25.25,85.79,2021.0,8.12,486.0,0,250.0,18.0,9.95,1.01,0,180.0,16.0,34.0,25.0,2.84,0.24,18,316.0,
W250913085150701,339.0,Bihar,Nalanda,Islampur,Sherpur,25.15,85.25,2021.0,8.13,552.0,0,293.0,21.0,4.34,0.84,0,190.0,8.0,41.0,37.0,1.51,0.81,16,359.0,
W250430085270401,340.0,Bihar,Nalanda,Silao,Silao,25.08,85.45,2021.0,7.9,2420.0,0,592.0,351.0,165,29,0,645.0,42.0,131.0,224.0,42.0,0.01,16,1573.0,
W251928085320301,341.0,Bihar,Nalanda,Rahui,Vena,25.32,85.53,2021.0,7.73,607.0,0,287.0,32.0,20,0.65,0,165.0,18.0,29.0,60.0,3.62,0.31,15,395.0,
W250324086453801,342.0,Bihar,Nawada,Nawada,Mirjapur,24.89,85.54,2021.0,7.75,440.0,0,250.0,14.0,5.65,9.67,0,175.0,18.0,32.0,22.0,1.88,0.25,14,286.0,
W245434085321101,343.0,Bihar,Nawada,Nawada,Gonama,24.91,85.54,2021.0,7.25,620.0,0,250.0,57.0,11,14,0,225.0,18.0,44.0,35.0,1.68,0.19,16,403.0,
W244945085401501,344.0,Bihar,Nawada,Hisua,Hisua,24.83,85.67,2021.0,7.5,542.0,0,256.0,32.0,12,13,0,190.0,26.0,30.0,33.0,1.66,0.21,15,352.0,
W245046085530101,345.0,Bihar,Nawada,Kawakol,Kawakol ashram,24.85,85.88,2021.0,7.73,252.0,0,98.0,25.0,11,0.08,0,80.0,18.0,9.0,16.0,0.3,0.67,10,164.0,
W244403085251001,346.0,Bihar,Nawada,Narhat,Khanwa,24.73,85.42,2021.0,7.55,453.0,0,189.0,36.0,17,10,0,165.0,22.0,27.0,22.0,0.98,0.72,15,294.0,
W244403085210401,347.0,Bihar,Nawada,Meskaur,Meskaur,24.73,85.35,2021.0,7.91,804.0,0,409.0,39.0,12,0,0.07,330.0,26.0,64.0,24.0,13.0,0.1,26,523.0,
W243901085250601,348.0,Bihar,Nawada,Sirdala,Nawabganj,24.65,85.42,2021.0,8.16,680.0,0,378.0,18.0,8,0,0,195.0,8.0,43.0,62.0,2.5,1.01,15,442.0,
W245230085410001,349.0,Bihar,Nawada,Pakribarwan,Roh,24.88,85.68,2021.0,7.95,419.0,0,220.0,28.0,3.75,5.77,0,195.0,36.0,26.0,12.0,2.04,0.14,16,272.0,
W245100085453001,350.0,Bihar,Nawada,Kauakol,Rupau,24.85,85.76,2021.0,7.99,1980.0,0,653.0,227.0,113,32,0,510.0,80.0,75.0,197.0,29.5,0,17,1287.0,
W250129085342501,351.0,Bihar,Nawada,Warshaliganj,Shahpur Morh,25.02,85.57,2021.0,7.94,490.0,0,256.0,18.0,5.6,0,0,140.0,18.0,23.0,43.0,1.67,0.28,15,319.0,
W244845085340001,352.0,Bihar,Nawada,Hisua,Tungi,24.81,85.57,2021.0,8.02,580.0,0,250.0,39.0,19,13,0,195.0,32.0,28.0,36.0,4.18,0.35,22,377.0,
W250145085384501,353.0,Bihar,Nawada,Warshaliganj,Warshaliganj,25.03,85.65,2021.0,7.79,439.0,0,214.0,21.0,5.87,7.98,0,165.0,28.0,23.0,25.0,1.91,0.19,17,285.0,
W250824085415801,354.0,Bihar,Seikhpura,Barbigha,Ambari,25.14,85.7,2021.0,8.16,2500.0,0,732.0,312.0,178,31,0,725.0,50.0,146.0,239.0,2.5,0.93,13,1625.0,
W251301085441601,355.0,Bihar,Seikhpura,Barbigha,Barbigha,25.22,85.74,2021.0,7.85,1030.0,0,311.0,110.0,83,23,0,320.0,20.0,66.0,77.0,14.0,0.19,15,670.0,
W261730085561501,356.0,Bihar,Seikhpura,Barbigha,Keoti,25.22,85.8,2021.0,7.96,683.0,0,189.0,82.0,66,9.45,0,260.0,26.0,47.0,35.0,2.99,0.06,15,444.0,
W251302085443801,357.0,Bihar,Seikhpura,Barbigha,Koeri Bigha,25.22,85.74,2021.0,8.01,870.0,0,287.0,78.0,49,27,0,255.0,18.0,51.0,60.0,31.2,0.18,15,566.0,
W251013085473301,358.0,Bihar,Seikhpura,Seikhpura,Nemdarganj,25.17,85.79,2021.0,7.89,743.0,0,360.0,46.0,18,0,0,245.0,36.0,38.0,55.0,4.3,0.76,13,483.0,
W250256085513401,359.0,Bihar,Seikhpura,Ariari,Ariari,25.05,85.86,2021.0,8.18,1800.0,0,604.0,206.0,101,8.69,0,555.0,48.0,106.0,156.0,5.8,0.89,13,1170.0,
W244608085000301,360.0,Bihar,Gaya,Gaya sadar,Chand Chowra Chowk,24.77,85,2021.0,7.4,1060.0,0,281.0,128.0,72,32,0,305.0,26.0,58.0,81.0,17.0,0.79,21,689.0,
W240547086594601,361.0,Bihar,Gaya,Fatehpur,Fatehpur,24.64,85.23,2021.0,7.92,480.0,0,122.0,53.0,42,29,0,145.0,22.0,22.0,37.0,0.64,0.39,18,312.0,
W202230080440001,362.0,Bihar,Gaya,Manpur,Manpur,24.79,85.03,2021.0,7.51,1140.0,0,354.0,135.0,56,31,0,395.0,12.0,89.0,56.0,26.0,0.1,15,741.0,
W244842085005601,363.0,Bihar,Gaya,Gaya sadar,Ram kund,24.81,85.02,2021.0,7.35,1204.0,0,293.0,167.0,96,33,0,405.0,26.0,83.0,79.0,15.0,1.4,18,783.0,
W244657084595901,364.0,Bihar,Gaya,Gaya sadar,Sangat gali,24.78,85,2021.0,7.4,810.0,0,268.0,92.0,38,28,0,295.0,26.0,56.0,51.0,0.73,0.74,18,527.0,
W244815085131501,365.0,Bihar,Gaya,,Wazirganj,24.8,85.22,2021.0,8.05,590.0,0,275.0,36.0,15,5.32,0,185.0,24.0,30.0,38.0,11.0,0.38,15,384.0,
W254005084413401,366.0,Bihar,Bhojpur,Barhara,Bakhorapur,25.67,84.69,2021.0,7.34,363.0,0,134.0,25.0,15,19,0.63,150.0,30.0,18.0,9.0,3.12,0.5,7.01,236.0,
W252925084332301,367.0,Bihar,Bhojpur,Barhara,Balua,25.65,84.56,2021.0,7.44,440.0,0,195.0,14.0,22,9.12,0,180.0,38.0,21.0,15.0,3.47,0.62,5.65,286.0,
W254058084434301,368.0,Bihar,Bhojpur,Barhara,Barahara,25.68,84.73,2021.0,7.36,712.0,0,183.0,60.0,82,41,0,255.0,64.0,23.0,39.0,5.26,0.3,5.8,463.0,
W253612084432901,369.0,Bihar,Bhojpur,Koilwar,Birampur,25.6,84.72,2021.0,7.22,954.0,0,348.0,75.0,65,7.63,0,345.0,42.0,58.0,51.0,14.0,0.35,8.87,620.0,
W253345084361501,370.0,Bihar,Bhojpur,Arrah,Chandawa,25.56,84.6,2021.0,7.3,634.0,0,299.0,25.0,19,16,0,205.0,58.0,15.0,46.0,1.79,0.43,11,412.0,
W254017084462501,371.0,Bihar,Bhojpur,Barhara,Dhusaria,25.67,84.77,2021.0,7.31,1448.0,0,451.0,160.0,87,40,0,360.0,42.0,62.0,136.0,45.0,0.25,8.76,941.0,
W254111084442001,372.0,Bihar,Bhojpur,Barhara,Ekauna,25.69,84.74,2021.0,7.67,434.0,0,189.0,14.0,22,18,0.67,165.0,26.0,24.0,17.0,6.04,0.3,7.95,282.0,
W254054084391601,373.0,Bihar,Bhojpur,Barhara,Farhda,25.68,84.65,2021.0,7.9,281.0,0,122.0,11.0,12,3.94,0,105.0,26.0,10.0,13.0,1.25,0.09,6.71,183.0,
W253513084444901,374.0,Bihar,Bhojpur,Koilwar,Giddha,25.59,84.75,2021.0,7.5,1213.0,0,329.0,178.0,41,42,0.54,350.0,54.0,52.0,101.0,17.0,0.3,8.64,788.0,
W251536084355001,375.0,Bihar,Bhojpur,Sahar,Guljarpur,25.26,84.6,2021.0,7.53,617.0,0,275.0,18.0,28,21,0.79,250.0,34.0,40.0,24.0,1.16,0.66,11,401.0,
W253421084342101,376.0,Bihar,Bhojpur,Udwantnagar,Harnath Kundi,25.57,84.57,2021.0,7.3,1240.0,0,470.0,117.0,41,23,0.93,420.0,24.0,87.0,68.0,40.0,0.35,9.68,806.0,
W254029084355301,377.0,Bihar,Bhojpur,Barhara,Jagatpur,25.67,84.6,2021.0,7.73,536.0,0,238.0,28.0,22,6.07,0.66,205.0,22.0,36.0,25.0,1.21,0.72,9.67,348.0,
W253609084320201,378.0,Bihar,Bhojpur,Ara,Jarawarpur Milki,25.6,84.53,2021.0,7.53,634.0,0,262.0,50.0,21,10,0,210.0,26.0,35.0,44.0,2.66,0.44,12,412.0,
W254002084214001,379.0,Bihar,Bhojpur,Shahpur,Karnempur,25.67,84.36,2021.0,7.09,1673.0,0,531.0,220.0,51,41,0.76,500.0,34.0,101.0,126.0,44.0,0.41,8.09,1087.0,
W252841084363101,380.0,Bihar,Bhojpur,Udwantnagar,Kasap,25.48,84.61,2021.0,7.1,1643.0,0,519.0,199.0,79,35,1.21,495.0,40.0,96.0,119.0,42.0,0.67,8.92,1068.0,
W252336084413601,381.0,Bihar,Bhojpur,Sandesh,Kori,25.39,84.69,2021.0,7.4,976.0,0,281.0,107.0,68,41,1,340.0,40.0,58.0,60.0,10.0,0.26,11,634.0,
W253445084450001,382.0,Bihar,Bhojpur,Koilwar,Kulharia,25.58,84.75,2021.0,7.64,572.0,0,128.0,75.0,68,3.56,0.86,200.0,38.0,26.0,35.0,2.47,0.18,11,372.0,
W253038084440601,383.0,Bihar,Bhojpur,Koilwar,Lodhipur,25.51,84.74,2021.0,7.36,1443.0,0,372.0,192.0,98,41,1.09,470.0,104.0,51.0,98.0,26.0,0.08,11,938.0,
W253613084450001,384.0,Bihar,Bhojpur,Koilwar,Mokhlisa,25.6,84.75,2021.0,7.5,608.0,0,232.0,18.0,52,30,0,235.0,26.0,41.0,25.0,7.13,0.31,12,395.0,
W252706084450101,385.0,Bihar,Bhojpur,Sandesh,Nasratpur,25.45,84.75,2021.0,7.32,1190.0,0,384.0,124.0,64,41,1.28,370.0,48.0,61.0,78.0,35.0,0.27,15,774.0,
W253832084471501,386.0,Bihar,Bhojpur,Koilwar,Pachrukhiya,25.64,84.79,2021.0,7.29,1142.0,0,397.0,96.0,67,42,0,355.0,48.0,57.0,80.0,30.0,0.14,8.79,742.0,
W252423084374301,387.0,Bihar,Bhojpur,Sandesh,Pauna,25.41,84.63,2021.0,7.29,1428.0,0,470.0,156.0,71,40,0,470.0,34.0,94.0,84.0,42.0,0.81,9.86,928.0,
W252000084251501,388.0,Bihar,Bhojpur,Pirro,Pirro,25.33,84.42,2021.0,7.28,1453.0,0,445.0,185.0,59,39,1.48,435.0,28.0,89.0,110.0,39.0,0.58,11,944.0,
W252421084441701,389.0,Bihar,Bhojpur,Sandesh,Sandesh,25.41,84.74,2021.0,7.37,1519.0,0,500.0,163.0,81,34,0,475.0,66.0,75.0,109.0,35.0,0.14,14,987.0,
W253411084313101,390.0,Bihar,Bhojpur,Udwantnagar,Sasaram Chota,25.57,84.53,2021.0,7.33,1087.0,0,451.0,64.0,43,35,0,295.0,24.0,57.0,90.0,38.0,0.12,9.43,707.0,
W232822080212701,391.0,Bihar,Bhojpur,Barhara,Simariya,25.67,84.72,2021.0,7.25,1310.0,0,470.0,131.0,61,7.17,0,480.0,44.0,90.0,65.0,20.0,0.27,7.77,852.0,
W253636084452401,392.0,Bihar,Bhojpur,Koilwar,Songhata,25.61,84.76,2021.0,7.37,666.0,0,336.0,25.0,13,7.41,0,260.0,26.0,47.0,28.0,2.46,0.35,9.4,433.0,
W253004084173401,393.0,Bihar,Buxar,Barhampur,Bagen Bazar,25.5,84.29,2021.0,7.83,337.0,0,159.0,14.0,7.66,7.76,1.45,120.0,14.0,21.0,18.0,2.3,0.53,14,219.0,
W254105084074601,394.0,Bihar,Buxar,Simri,Barka Rajpur,25.68,84.13,2021.0,7.25,1304.0,0,543.0,103.0,22,38,1.39,425.0,32.0,84.0,99.0,8.61,0.13,9.12,848.0,
W253000083543001,395.0,Bihar,Buxar,Chausa,Chausa,25.5,83.91,2021.0,7.21,2380.0,0,933.0,188.0,89,61,1.07,625.0,48.0,123.0,199.0,98.0,0,12,1547.0,
W253248083555501,396.0,Bihar,Buxar,Buxar,Danikutia,25.55,83.93,2021.0,7.41,870.0,0,439.0,28.0,23,8.19,0.83,235.0,12.0,50.0,84.0,11.0,0.5,9.84,566.0,
W253654084032101,397.0,Bihar,Buxar,Buxar,Dudharchak,25.62,84.06,2021.0,7.29,579.0,0,305.0,14.0,11,2.31,0.72,245.0,20.0,47.0,15.0,2.69,0.35,12,376.0,
W253315084091501,398.0,Bihar,Buxar,Dumraon,Dumraon,25.55,84.15,2021.0,7.38,855.0,0,268.0,75.0,56,43,0.68,290.0,24.0,56.0,56.0,10.0,0.62,15,556.0,
W242837086114401,399.0,Bihar,Buxar,Simri,Dumri,25.63,84.18,2021.0,7.37,758.0,0,397.0,28.0,7.53,2.85,0.77,320.0,28.0,61.0,21.0,4.71,0.26,11,493.0,
W253634084102501,400.0,Bihar,Buxar,Simri,Durasan,25.6,84.17,2021.0,7.43,1130.0,0,317.0,128.0,84,37,0,340.0,22.0,69.0,78.0,33.0,0.2,13,735.0,
W253754084190701,401.0,Bihar,Buxar,Barhampur,Hathilpur,25.63,84.32,2021.0,7.67,467.0,0,220.0,14.0,12,17,0,200.0,36.0,27.0,12.0,3.31,0,9.67,304.0,
W253535084151901,402.0,Bihar,Buxar,Buxar,Jugia Dera,25.59,84.26,2021.0,7.66,424.0,0,189.0,14.0,16,10,1.41,150.0,24.0,22.0,26.0,2.1,0.59,12,276.0,
W253904084110301,403.0,Bihar,Buxar,Simri,Karathar,25.65,84.18,2021.0,7.43,625.0,0,305.0,28.0,16,1.85,1.15,275.0,36.0,45.0,12.0,2.5,0.32,16,406.0,
W253123084162501,404.0,Bihar,Buxar,Barhampur,Khochariwan,25.52,84.27,2021.0,7.46,505.0,0,238.0,21.0,14,3.76,0,220.0,26.0,38.0,13.0,1.38,0.64,15,328.0,
W253255083563001,405.0,Bihar,Buxar,Buxar,Kritpur,25.55,83.94,2021.0,7.47,645.0,0,317.0,25.0,16,12,0,275.0,22.0,53.0,17.0,2.72,0.25,16,419.0,
W230530080300001,406.0,Bihar,Buxar,Simri,Manikpur,25.67,84.09,2021.0,7.41,695.0,0,372.0,18.0,8.7,2.9,0,295.0,38.0,49.0,20.0,4.3,1.38,11,452.0,
W253633084203301,407.0,Bihar,Buxar,Barhampur,Mharajgunj,25.61,84.34,2021.0,7.44,739.0,0,311.0,28.0,26,52,0,260.0,22.0,50.0,41.0,8.96,0.5,11,480.0,
W254045084083001,408.0,Bihar,Buxar,Simri,Neazipur,25.68,84.14,2021.0,7.39,779.0,0,403.0,21.0,7.41,22,0,295.0,24.0,57.0,36.0,6.13,0.37,8.24,506.0,
W202035085471001,409.0,Bihar,Buxar,Barhampur,Raghunathpur,25.56,84.31,2021.0,7.69,929.0,0,232.0,117.0,65,38,1.32,325.0,24.0,64.0,52.0,12.0,0.55,9.43,604.0,
W215611075081001,410.0,Bihar,Buxar,Rajpur,Rajpur,25.41,83.92,2021.0,7.51,1312.0,0,372.0,160.0,85,37,1.44,525.0,40.0,103.0,50.0,16.0,0.57,11,853.0,
W253623084031201,411.0,Bihar,Buxar,Buxar,Ramobariya,25.61,84.05,2021.0,7.5,903.0,0,458.0,25.0,18,21,2.16,390.0,28.0,78.0,25.0,2.47,0.6,9.43,587.0,
W253943084092701,412.0,Bihar,Buxar,Simri,Sohiar,25.66,84.16,2021.0,7.34,1419.0,0,464.0,131.0,98,42,1.01,440.0,46.0,79.0,98.0,41.0,0,8.97,922.0,
W253315083564901,413.0,Bihar,Buxar,Buxar,Thodagaon,25.55,83.95,2021.0,7.48,743.0,0,329.0,28.0,31,25,1.16,340.0,28.0,66.0,12.0,1.48,0.05,12,483.0,
W284645079300001,414.0,Bihar,Darbhanga,Baheri 1,Baheri,25.95,86.07,2021.0,7.7,436.0,0,232.0,11.0,2.85,0,0,90.0,28.0,5.0,56.0,2.08,0.51,9.66,283.0,
W260040086051501,415.0,Bihar,Darbhanga,Baheri,Bithauli,26.01,86.09,2021.0,7.85,392.0,0,207.0,14.0,1.98,0,0.02,100.0,26.0,9.0,44.0,2.02,0.09,9.46,255.0,
W260945085534501,416.0,Bihar,Darbhanga,Darbhanga,Darbhanga,26.17,85.91,2021.0,7.95,371.0,0,189.0,18.0,3.69,0,0.1,65.0,24.0,1.0,56.0,1.49,0.352,7.73,241.0,
W260026085583001,417.0,Bihar,Darbhanga,Baheri,Jorja,26.01,85.99,2021.0,7.8,567.0,0,305.0,18.0,1.55,0,0.17,200.0,42.0,23.0,37.0,1.59,0.69,9.31,369.0,
W261001085460201,418.0,Bihar,Darbhanga,Simri,Simri (Bithauli),26.17,85.77,2021.0,8,428.0,0,244.0,7.0,3.58,0,0.31,120.0,28.0,12.0,41.0,1.71,0.67,7.65,278.0,
W255447085462901,419.0,Bihar,Samstipur,Kalyanpur,Basudebpur,25.91,85.78,2021.0,7.66,582.0,0,287.0,14.0,36,0,0.22,250.0,48.0,32.0,19.0,3.11,0.65,9.76,378.0,
W254817085520501,420.0,Bihar,Samstipur,Ujiarpur,Dandia Asadpur,25.81,85.87,2021.0,7.78,731.0,0,329.0,32.0,35,10,0.11,295.0,88.0,18.0,32.0,4.52,0.87,11,475.0,
W254923085445701,421.0,Bihar,Samstipur,Jitwarpur,Harpur Aloth,25.82,85.75,2021.0,7.89,548.0,0,281.0,18.0,11,2.66,0.12,230.0,42.0,30.0,21.0,1.38,0.75,7.44,356.0,
W200307085040801,422.0,Bihar,Samstipur,Vibhutipur,Kalyanpur,25.71,85.91,2021.0,7.9,609.0,0,317.0,14.0,19,4.57,0.41,220.0,54.0,21.0,36.0,3.45,0.92,9.17,396.0,
W211000081324501,423.0,Bihar,Samstipur,Tajpur Morwa,Motipur,25.85,85.68,2021.0,7.75,615.0,0,262.0,32.0,48,0,0.02,240.0,36.0,36.0,35.0,2.44,0.78,9.57,400.0,
W242906081532502,424.0,Bihar,Samstipur,Vibhutipur,Patpara,25.78,85.92,2021.0,7.74,687.0,0,281.0,28.0,62,0,0.01,255.0,34.0,41.0,42.0,2.84,0.71,10,447.0,
W254545086023001,425.0,Bihar,Samstipur,Rosera,Rosera,25.76,86.04,2021.0,7.65,1093.0,0,329.0,110.0,110,0,0.02,445.0,46.0,80.0,42.0,7.25,0.59,5.59,710.0,
W254605085430101,426.0,Bihar,Samstipur,Sarai Ranjan,Sarai Ranjan,25.77,85.72,2021.0,7.98,1047.0,0,317.0,149.0,37,0.14,0.4,375.0,34.0,70.0,66.0,2.28,0.85,7.72,681.0,
W262925085295901,427.0,Bihar,Sitamarhi,Sitamarhi,Sitamarhi,26.49,85.5,2021.0,8.16,319.0,0,165.0,11.0,2.18,0,0.39,135.0,52.0,1.0,17.0,2.38,0.4,2.76,207.0,
W263545085280001,428.0,Bihar,Sitamarhi,Sursand,Sursand,26.6,85.47,2021.0,8.1,293.0,0,146.0,11.0,6.5,0,0.44,135.0,46.0,5.0,8.0,1.78,0.66,4.05,190.0,
W083202076524701,429.0,Bihar,Sitamarhi,Runi saidpur,Thumba,26.43,85.5,2021.0,8.15,279.0,0,128.0,7.0,17,0,0.17,125.0,46.0,2.0,10.0,1.64,0.56,4.32,181.0,
W252652086014001,430.0,Bihar,Begusarai,Barauni,Begusarai,45.45,86.03,2021.0,7.93,507.0,0,226.0,32.0,19,0,0,215.0,36.0,30.0,11.0,3.3,0,0.37,330.0,
W252245086081501,431.0,Bihar,Begusarai,Begusarai,Begusarai Fc/ib,25.38,86.14,2021.0,7.87,637.0,0,250.0,53.0,40,5.89,0.33,245.0,42.0,34.0,31.0,4.72,0,5.92,414.0,
W261053084362601,432.0,Bihar,Begusarai,Begusarai,Hardia,25.46,86.14,2021.0,7.84,748.0,0,177.0,99.0,72,35,0.37,350.0,46.0,57.0,12.0,5.68,0,3.47,486.0,
W252620086043701,433.0,Bihar,Begusarai,Begusarai,Harpur,25.44,86.08,2021.0,7.9,791.0,0,128.0,92.0,115,39,0.31,295.0,40.0,47.0,31.0,9.15,0.01,1.41,514.0,
W253345086084501,434.0,Bihar,Begusarai,Cheria Bariarpur,Manjaul,25.56,86.15,2021.0,7.95,1151.0,0,214.0,170.0,100,58,0.21,410.0,40.0,75.0,69.0,3.21,0.37,2.43,748.0,
W252845085564501,435.0,Bihar,Begusarai,Teghra,Teghra,25.48,85.95,2021.0,8.01,755.0,0,232.0,67.0,72,4.4,0.24,325.0,24.0,64.0,19.0,5.0,0.06,2.85,491.0,
W261631085064401,436.0,Bihar,Muzaffarpur,Mushhari,Bhagwanpur chowk,26.28,85.11,2021.0,7.95,1077.0,0,256.0,110.0,147,6.03,1.15,370.0,36.0,68.0,57.0,20.0,0.7,7.58,700.0,
W260945085270001,437.0,Bihar,Muzaffarpur,Bochaha,Bochaha,26.16,85.45,2021.0,8.01,1190.0,0,299.0,131.0,115,57,0.19,420.0,34.0,81.0,72.0,5.13,0,3.17,774.0,
W260837085232601,438.0,Bihar,Muzaffarpur,Mushari,Japaha,26.14,85.39,2021.0,7.86,1287.0,0,342.0,163.0,75,45,0.03,305.0,24.0,60.0,29.0,32.0,0.02,5.71,837.0,
W114909093023001,439.0,Bihar,Muzaffarpur,Gaighat,Ramnagar,26.26,85.62,2021.0,8,480.0,0,220.0,36.0,4.3,0,0.36,205.0,20.0,38.0,17.0,3.75,0,2.7,312.0,
W304230076440101,440.0,Chandigarh,Chandigarh,Chandigarh,Maloya,30.754,76.719,2021.0,8.05,582.0,0,293.0,56.0,0,0.5,0,170.0,36.0,19.0,69.0,1.2,0.33,20,,
W304230076474001,441.0,Chandigarh,Chandigarh,Chandigarh,Burail,30.71,76.76,2021.0,8.52,440.0,24,122.0,21.0,28,25,0.12,140.0,32.0,15.0,30.0,14.0,0.3,18,,
W204100081243001,442.0,Chhattisgarh,Durg,Gurur,Gurur,20.68,81.41,2021.0,7.2,763.0,0,268.0,92.0,29,21,0,360.0,76.0,41.0,17.0,2.0,0.6,6,,0
W204039081263001,443.0,Chhattisgarh,Durg,Gurur,kuliya,20.68,81.44,2021.0,7.2,395.0,0,146.0,35.0,32,14,0,160.0,40.0,14.0,15.0,9.0,0.4,4,,0
W203720081263301,444.0,Chhattisgarh,Durg,Gurur,Jagtara,20.62,81.44,2021.0,7.2,389.0,0,207.0,14.0,9.1,2,0,170.0,52.0,10.0,12.0,2.0,0.5,5,,0
W203407081225201,445.0,Chhattisgarh,Durg,Gurur,Markatola,20.57,81.38,2021.0,7.7,461.0,0,256.0,14.0,12,0,0,160.0,32.0,19.0,37.0,3.0,0.6,4,,0
W202709081233401,446.0,Chhattisgarh,Kanker,Charama,Ratesara,20.46,81.4,2021.0,7.4,293.0,0,122.0,14.0,40,0,0,100.0,24.0,10.0,27.0,1.0,0.9,13,,0
W203148081220404,447.0,Chhattisgarh,Kanker,Charama,Machandur,20.53,81.37,2021.0,7.5,1232.0,0,415.0,135.0,61,59,0,520.0,124.0,50.0,47.0,12.0,0,13,,0
W194624081543002,448.0,Chhattisgarh,Kanker,Makdi,Makdi,19.77,81.91,2021.0,7.5,510.0,0,244.0,28.0,23,8,0,210.0,60.0,14.0,28.0,1.0,0.7,14,,0
W182720076052901,449.0,Chhattisgarh,Kanker,Kanker,Govindpur,20.28,81.48,2021.0,7.6,1189.0,0,403.0,177.0,39,22,0,360.0,96.0,29.0,107.0,2.0,1.5,13,,0
W201658081384101,450.0,Chhattisgarh,Kanker,Sarana (Narharpur),Murpar,20.28,81.64,2021.0,7.1,410.0,0,195.0,35.0,11,6,0,150.0,52.0,5.0,28.0,1.0,0.5,21,,0
W195130081381501,451.0,Chhattisgarh,Bastar,Baderajpur,Pharasgaon,19.86,81.64,2021.0,6.9,265.0,0,122.0,64.0,0,19,0,110.0,24.0,12.0,15.0,2.0,0.2,29,,0
W193435081400101,452.0,Chhattisgarh,Bastar,Kondagaon,Massaukokada,19.92,81.62,2021.0,7.8,263.0,0,116.0,21.0,0,32,0,90.0,28.0,5.0,22.0,1.0,0.2,23,,0
W194839081383801,453.0,Chhattisgarh,Bastar,Kondagaon,Borgaon,19.82,81.64,2021.0,6.7,400.0,0,98.0,71.0,10,32,0,160.0,48.0,10.0,23.0,1.0,0.2,16,,0
W194654081393904,454.0,Chhattisgarh,Kondagaon,Pharasgaon,Kulhadhgaon,19.78,81.66,2021.0,7,261.0,0,146.0,14.0,0,0,0,110.0,32.0,7.0,14.0,2.0,0.3,14,,0
W194315081391502,455.0,Chhattisgarh,Bastar,Pharasgaon,Lanjora,19.72,81.65,2021.0,6.9,1385.0,0,390.0,255.0,20,0,0,620.0,20.0,65.0,39.0,1.0,0.4,25,,0
W194025081403501,456.0,Chhattisgarh,Bastar,Pharasgaon,Jaitpuri,19.68,81.66,2021.0,7,285.0,0,134.0,28.0,10,15,0,110.0,36.0,5.0,18.0,3.0,0.3,18,,0
W193500081400001,457.0,Chhattisgarh,Kondagaon,Kondagaon,Kondagaon,19.6,81.67,2021.0,8,562.0,0,195.0,64.0,5,39,0,200.0,56.0,14.0,28.0,2.0,0.3,16,,0
W193436081395404,458.0,Chhattisgarh,Bastar,Kondagaon,Chikalphuti,19.58,81.67,2021.0,7.7,340.0,0,183.0,21.0,0,11,0,150.0,32.0,17.0,16.0,2.0,0.2,14,,0
W192810081432001,459.0,Chhattisgarh,Bastar,Kondagaon,Dahikonga,19.47,81.72,2021.0,7,279.0,0,134.0,28.0,0,14,0,115.0,32.0,8.0,12.0,1.0,0.3,13,,0
W192743081451301,460.0,Chhattisgarh,Bastar,Kondagaon,Surkupal,19.59,81.72,2021.0,7.6,262.0,0,134.0,21.0,0,3,0,110.0,24.0,12.0,16.0,0.0,1.5,14,,0
W192610081452001,461.0,Chhattisgarh,Bastar,Kondagaon,Joba,19.44,81.76,2021.0,8.1,260.0,0,134.0,14.0,0,3,0,100.0,28.0,7.0,17.0,0.0,1.5,4,,0
W191950081495501,462.0,Chhattisgarh,Bastar,Bastar,Bhanpuri,19.33,81.83,2021.0,7.6,302.0,0,122.0,14.0,0,6,0,140.0,40.0,10.0,4.0,1.0,1.2,5,,0
W191210081431001,463.0,Chhattisgarh,Bastar,Londigura,Chitrakot,19.2,81.72,2021.0,7.7,376.0,0,232.0,7.0,0,0,0,170.0,48.0,12.0,12.0,4.0,0.3,5,,0
W191020081451701,464.0,Chhattisgarh,Bastar,lourdigadh,Usri bera,19.17,81.75,2021.0,7.3,422.0,0,244.0,14.0,0,8,0,215.0,68.0,11.0,4.0,1.0,0.2,6,,0
W195035081522701,465.0,Chhattisgarh,Bastar,Jagdalpur,Dewargaon,19.12,81.9,2021.0,7.8,298.0,0,146.0,14.0,0,11,0,140.0,36.0,12.0,3.0,1.0,0.2,6,,0
W190545081573001,466.0,Chhattisgarh,Bastar,Jagdalpur,Kumharwand,19.09,81.96,2021.0,7.6,233.0,0,122.0,7.0,8,1,0,115.0,36.0,6.0,2.0,1.0,0.2,4,,0
W190510082014001,467.0,Chhattisgarh,Bastar,Jagdalpur,Jagdalpur,19.09,82.03,2021.0,6.8,181.0,0,79.0,14.0,5,4,0,80.0,20.0,7.0,5.0,2.0,0.3,3,,0
W190350082085001,468.0,Chhattisgarh,Bastar,Jagdalpur,Markel,19.06,82.15,2021.0,6.8,123.0,0,61.0,7.0,0,1,0,50.0,12.0,5.0,2.0,3.0,0.1,2,,0
W191205081561001,469.0,Chhattisgarh,Bastar,Jagdalpur,Bastar,19.2,81.94,2021.0,7.4,349.0,0,171.0,21.0,0,18,0,175.0,52.0,11.0,4.0,1.0,0.3,5,,0
W191700081570001,470.0,Chhattisgarh,Bastar,Bastar,Sonarpal,19.26,81.89,2021.0,7.4,607.0,0,268.0,43.0,0,29,0,280.0,92.0,12.0,8.0,4.0,0.3,4,,0
W192047081465101,471.0,Chhattisgarh,Bastar,Bastar,Farsaguda,19.35,81.81,2021.0,7.5,268.0,0,98.0,21.0,0,20,0,110.0,32.0,7.0,9.0,0.0,0.3,4,,0
W201645081294501,472.0,Chhattisgarh,Kanker,Kanker,Kanker,20.28,81.5,2021.0,7.3,1533.0,0,378.0,255.0,70,1,0,520.0,84.0,74.0,119.0,2.0,1.5,15,,30
W202213081262901,473.0,Chhattisgarh,Kanker,Charama,Tegara,20.37,81.44,2021.0,7.5,255.0,0,152.0,7.0,0,0,0,115.0,36.0,6.0,9.0,2.0,1.1,14,,0
W202345081254001,474.0,Chhattisgarh,Kanker,Charama,Lakhanpuri,20.39,81.43,2021.0,7.5,1292.0,0,256.0,213.0,100,39,0,500.0,84.0,70.0,69.0,1.0,1,12,,0
W202531081242101,475.0,Chhattisgarh,Kanker,Charama,Jhipatota,20.48,81.37,2021.0,7.6,906.0,0,262.0,106.0,40,28,0,300.0,88.0,19.0,59.0,2.0,0.5,10,,0
W215745083011001,476.0,Chhattisgarh,Bilaspur,Pendra,Adbhar,22.49,81.59,2021.0,8,378.0,0,171.0,35.0,9.8,0,0,145.0,40.0,11.0,26.0,2.0,0.4,9,,1.6
W215505082160302,477.0,Chhattisgarh,Bilaspur,Masturi,Bakarkuda,21.92,82.27,2021.0,7.9,695.0,0,293.0,64.0,19.3,2,0,290.0,60.0,34.0,28.0,2.0,0.3,5,,1
W222810082061601,478.0,Chhattisgarh,Bilaspur,Kota,Banabel,22.47,82.11,2021.0,8,1153.0,0,415.0,149.0,30,0,0,260.0,20.0,50.0,150.0,1.0,0.8,8,,3
W222300082070001,479.0,Chhattisgarh,Bilaspur,Kota,Bansajhal,22.38,82.12,2021.0,8.2,421.0,0,207.0,28.0,14,2,0,180.0,44.0,17.0,21.0,1.0,0.3,6,,0.5
W215247082085101,480.0,Chhattisgarh,Bilaspur,Bilha,Bartoli,21.88,82.15,2021.0,7.7,1179.0,0,305.0,142.0,49,67,0,400.0,72.0,53.0,69.0,4.0,0,6,,1
W222600082020001,481.0,Chhattisgarh,Bilaspur,Kota,Belgahana,22.43,82.03,2021.0,7.9,700.0,0,311.0,64.0,27,5,0,300.0,44.0,46.0,38.0,1.0,1.2,11,,1
W220941082200801,482.0,Chhattisgarh,Bilaspur,Bilaspur,Bhadrapara,22.16,82.34,2021.0,7.9,533.0,0,244.0,35.0,35,5,0,240.0,36.0,36.0,21.0,3.0,0,16,,1
W215810082025001,483.0,Chhattisgarh,Bilaspur,Bilha,Bilha,21.96,82.09,2021.0,7.8,885.0,0,329.0,78.0,31,9,0,250.0,52.0,29.0,77.0,2.0,0.3,8,,1.6
W214630081400301,484.0,Chhattisgarh,Bilaspur,Bilha,Bitkuli,21.95,82.05,2021.0,7.9,667.0,0,268.0,64.0,33,9,0,310.0,52.0,43.0,19.0,1.0,0.1,6,,1
W215926082143301,485.0,Chhattisgarh,Bilaspur,Masturi,Bothidih,21.99,82.24,2021.0,7.6,1451.0,0,348.0,199.0,91,68,0,560.0,100.0,74.0,71.0,1.0,0,14,,1.4
W220003082072301,486.0,Chhattisgarh,Bilaspur,Bilha,Chakarbhata,22,82.12,2021.0,7.7,725.0,0,244.0,78.0,59,26,0,285.0,60.0,32.0,25.0,1.0,0,12,,3
W230109082020901,487.0,Chhattisgarh,Bilaspur,Marwahi,Chchgohana,23.02,82.04,2021.0,8,228.0,0,79.0,14.0,27,9,0,90.0,28.0,5.0,12.0,1.0,0,10,,2
W204704080370401,488.0,Chhattisgarh,Bilaspur,Masturi,Chilhati,21.78,82.31,2021.0,8,1072.0,0,512.0,85.0,27,13,0,195.0,4.0,44.0,177.0,2.0,0.8,9,,1
W215338082041401,489.0,Chhattisgarh,Bilaspur,Bilha,Dagauri,21.89,82.07,2021.0,7.6,1739.0,0,665.0,241.0,52,8,0,430.0,44.0,77.0,184.0,93.0,0,13,,0.4
W225545082040001,490.0,Chhattisgarh,Bilaspur,Marwahi,Danikundi,22.93,82.07,2021.0,8.1,585.0,0,183.0,64.0,22,63,0,250.0,60.0,24.0,26.0,3.0,0,8,,3.1
W223800074061501,491.0,Chhattisgarh,Bilaspur,Marwahi,Dhanpur,22.88,81.99,2021.0,8.1,122.0,0,43.0,14.0,6,6,0,50.0,12.0,5.0,5.0,2.0,0,12,,0.5
W211255081125001,492.0,Chhattisgarh,Bilaspur,Takhatpur,Ganiyari,22.19,82.05,2021.0,7.7,511.0,0,268.0,14.0,18,16,0,245.0,48.0,30.0,12.0,1.0,0.1,8,,0.3
W221140082082001,493.0,Chhattisgarh,Bilaspur,Takhatpur,Gatori,22.19,82.14,2021.0,7.7,252.0,0,61.0,43.0,18,0,0,110.0,24.0,12.0,8.0,3.0,0,6,,0.8
W224515081544001,494.0,Chhattisgarh,Bilaspur,Gaurela (pendrarod) - 2,Gaurela,22.75,81.91,2021.0,7.4,1089.0,0,293.0,206.0,29,7,0,350.0,84.0,34.0,100.0,2.0,0,9,,0.4
W222130082081604,495.0,Chhattisgarh,Bilaspur,kota,Ghansipur (sainik camp),22.36,82.14,2021.0,7.4,613.0,0,305.0,28.0,16,7,0,235.0,44.0,30.0,37.0,1.0,0.5,10,,0.6
W215815082030001,496.0,Chhattisgarh,Bilaspur,Bilha,Hirri,21.97,82.05,2021.0,7.3,690.0,0,268.0,64.0,34,1,0,285.0,48.0,40.0,28.0,3.0,0,13,,15
W221535081564401,497.0,Chhattisgarh,Bilaspur,Takhatpur,Jaroundha,22.15,81.56,2021.0,7.4,804.0,0,366.0,21.0,77,13,0,360.0,96.0,29.0,26.0,3.0,0,11,,0.8
W222200081595001,498.0,Chhattisgarh,Bilaspur,Kota,Jhingatpur,22.37,82,2021.0,7.2,494.0,0,268.0,28.0,3.2,4,0,215.0,44.0,25.0,23.0,2.0,0,9,,2.5
W221745082043001,499.0,Chhattisgarh,Bilaspur,Kota,Jogipur,22.3,82.08,2021.0,7.4,542.0,0,232.0,35.0,22,27,0,225.0,52.0,23.0,27.0,1.0,0,8,,0.8
W223155082045001,500.0,Chhattisgarh,Bilaspur,Kota,Kenda,22.53,82.08,2021.0,7.8,264.0,0,183.0,14.0,3.3,2,0,130.0,28.0,14.0,15.0,6.0,0,9,,0.3
W223715081461501,501.0,Chhattisgarh,Bilaspur,Gaurela (pendrarod) - 1,Keonchi,22.62,81.77,2021.0,7.4,359.0,0,171.0,21.0,15,0,0,125.0,36.0,8.0,30.0,1.0,0.8,12,,1
W211753086265701,502.0,Chhattisgarh,Bilaspur,Kota,Khaira,22.36,82.14,2021.0,7.3,527.0,0,293.0,28.0,9,1,0,195.0,40.0,23.0,45.0,1.0,0.7,10,,6.7
W221720082013001,503.0,Chhattisgarh,Bilaspur,Kota,Kota(kargi),22.29,82.03,2021.0,7.3,614.0,0,140.0,99.0,14,58,0,200.0,72.0,5.0,53.0,2.0,0,11,,2
W225153081584804,504.0,Chhattisgarh,Bilaspur,Marwahi,Kudwahi,22.86,81.98,2021.0,7,718.0,0,256.0,92.0,24,8,0,310.0,76.0,29.0,28.0,1.0,0,14,,3
W220843082245701,505.0,Chhattisgarh,Bilaspur,Takhatpur,Kuli,22.14,82.42,2021.0,7.2,172.0,0,85.0,7.0,5,2,0,50.0,12.0,5.0,17.0,1.0,0,11,,1
W225432081584101,506.0,Chhattisgarh,Bilaspur,Marwahi,Lekhani,22.91,81.98,2021.0,7.2,987.0,0,305.0,142.0,36,31,0,450.0,76.0,62.0,28.0,1.0,0,10,,4.5
W215329082170901,507.0,Chhattisgarh,Bilaspur,Masturi,Malhar,21.89,82.29,2021.0,7.7,551.0,0,262.0,28.0,36,10,0,245.0,60.0,23.0,27.0,1.0,0.3,8,,1.6
W230112082041001,508.0,Chhattisgarh,Bilaspur,Marwahi,Marwahi,23.02,82.07,2021.0,7.7,1016.0,0,390.0,92.0,60,3,0,450.0,116.0,38.0,27.0,2.0,0,12,,0.6
W220733082153001,509.0,Chhattisgarh,Bilaspur,Bilaspur,Matiyari,22.13,82.26,2021.0,7.8,640.0,0,281.0,35.0,24,31,0,260.0,44.0,36.0,33.0,1.0,0.2,7,,6.2
W215925082160001,510.0,Chhattisgarh,Bilaspur,Masturi,Masturi,21.99,82.27,2021.0,8,1275.0,0,622.0,78.0,50,10,0,440.0,96.0,48.0,111.0,4.0,1,11,,3.1
W222308082070204,511.0,Chhattisgarh,Bilaspur,Kota,Minrapara-Ratanpur,22.39,82.12,2021.0,7.7,1016.0,0,342.0,92.0,58,66,0,450.0,88.0,55.0,32.0,6.0,0.1,14,,7
W204752082321001,512.0,Chhattisgarh,Bilaspur,Kota,Nawapara,22.43,82.12,2021.0,8.1,511.0,0,305.0,7.0,7.5,8,0,250.0,60.0,24.0,10.0,1.0,0,10,,1.5
W222338081595201,513.0,Chhattisgarh,Bilaspur,Kota,Nawadih,22.39,82,2021.0,8,212.0,0,92.0,28.0,16,2,0,90.0,28.0,5.0,19.0,0.0,0.4,12,,0.9
W221245081555401,514.0,Chhattisgarh,Bilaspur,Takhatpur,Neora,22.21,81.93,2021.0,7.7,702.0,0,317.0,43.0,40,18,0,310.0,56.0,41.0,30.0,1.0,0,11,,0.2
W225649081564201,515.0,Chhattisgarh,Bilaspur,Marwahi,Nimdha,22.95,81.95,2021.0,7.7,1004.0,0,336.0,128.0,38,51,0,460.0,100.0,50.0,36.0,2.0,0,14,,1.2
W214941082161201,516.0,Chhattisgarh,Bilaspur,Masturi,Panchpedi,21.83,82.27,2021.0,7.7,1052.0,0,464.0,64.0,79,29,0,445.0,76.0,61.0,57.0,9.0,0.2,10,,0.9
W222535082023501,517.0,Chhattisgarh,Bilaspur,Kota,Pandra Patha,22.43,82.04,2021.0,8,531.0,0,183.0,28.0,36,23,0,165.0,52.0,8.0,38.0,1.0,0.5,11,,2.4
W215539082211701,518.0,Chhattisgarh,Bilaspur,Masturi,Kohronda,21.93,82.35,2021.0,8,510.0,0,201.0,43.0,37,27,0,210.0,64.0,12.0,32.0,2.0,0.6,9,,13
W192114084461501,519.0,Chhattisgarh,Bilaspur,Kota,Ratanpur,22.28,82.18,2021.0,7.5,1660.0,0,488.0,213.0,72,72,0,710.0,172.0,67.0,57.0,2.0,0,7,,3.3
W224151081533601,520.0,Chhattisgarh,Bilaspur,Gaurela (pendrarod) - 1,Rupandand,22.7,81.89,2021.0,7.8,386.0,0,140.0,28.0,19,32,0,130.0,48.0,2.0,32.0,1.0,0.4,13,,0.8
W222030081561001,521.0,Chhattisgarh,Bilaspur,Kota,Saraipalli,22.34,81.94,2021.0,7.6,904.0,0,281.0,135.0,47,24,0,420.0,160.0,5.0,31.0,1.0,0,12,,0.9
W230045081573001,522.0,Chhattisgarh,Bilaspur,Marwahi,Seoni,23.01,81.96,2021.0,7.9,199.0,0,73.0,14.0,5.7,21,0,65.0,16.0,6.0,18.0,2.0,0,10,,0.5
W225106081585001,523.0,Chhattisgarh,Bilaspur,Marwahi,Sewra,22.85,81.98,2021.0,7.6,759.0,0,329.0,64.0,30,2,0,310.0,52.0,43.0,40.0,0.0,0.6,16,,2.2
W225038082050901,524.0,Chhattisgarh,Bilaspur,Marwahi,Shekhwa,22.84,82.09,2021.0,8,401.0,0,256.0,7.0,5.3,1,0,170.0,48.0,12.0,27.0,0.0,0,10,,9
W222100082005801,525.0,Chhattisgarh,Bilaspur,Kota,Shripara,22.21,82.01,2021.0,7.7,801.0,0,342.0,28.0,84,14,0,275.0,44.0,40.0,66.0,1.0,0,7,,3.2
W220845082164501,526.0,Chhattisgarh,Bilaspur,Takhatpur,Sipat,22.15,82.28,2021.0,7.6,714.0,0,256.0,57.0,60,7,0,305.0,56.0,40.0,24.0,1.0,0,6,,2
W220512081401201,527.0,Chhattisgarh,Bilaspur,Mungeli,Surada,22.09,81.67,2021.0,8,369.0,0,207.0,14.0,10,1,0,140.0,28.0,17.0,28.0,2.0,0.2,7,,0.3
W213229082043101,528.0,Chhattisgarh,Bilaspur,Bilha,Sawti,21.54,82.08,2021.0,7.5,1493.0,0,641.0,92.0,99,57,0,650.0,156.0,62.0,70.0,2.0,0,20,,7.1
W222949082040101,529.0,Chhattisgarh,Bilaspur,Kota,Saudhakhurd,22.5,82.07,2021.0,7.6,898.0,0,305.0,78.0,88,1,0,195.0,40.0,23.0,117.0,2.0,0.4,16,,0.8
W230324082004401,530.0,Chhattisgarh,Bilaspur,Marwahi,Tendumuda,23.06,82.01,2021.0,7.9,451.0,0,220.0,14.0,37,13,0,215.0,52.0,20.0,17.0,1.0,0.4,13,,1.2
W221515081530001,531.0,Chhattisgarh,Bilaspur,Kota,Tenduwa,22.25,81.88,2021.0,7.7,676.0,0,171.0,64.0,39,56,0,280.0,96.0,10.0,16.0,2.0,0,10,,1
W230504082041001,532.0,Chhattisgarh,Bilaspur,Marwahi,Tikthi,23.08,82.07,2021.0,7.8,223.0,0,122.0,14.0,4,0,0,80.0,20.0,7.0,23.0,0.0,1.5,14,,0.3
W221621081451601,533.0,Chhattisgarh,Bilaspur,Takhatpur,Udaypur,22.27,81.75,2021.0,7.9,297.0,0,165.0,7.0,16,2,0,125.0,32.0,11.0,18.0,0.0,0.4,12,,0.3
W225833081575101,534.0,Chhattisgarh,Bilaspur,Pendra road,Dharhar,22.98,81.96,2021.0,7.5,183.0,0,67.0,21.0,13,0,0,70.0,20.0,5.0,14.0,0.0,0,9,,0.8
W220110082040401,535.0,Chhattisgarh,Bilaspur,Kota,Chhatauna,22.02,82.07,2021.0,7.3,1780.0,0,671.0,213.0,50,7,0,560.0,48.0,106.0,153.0,13.0,0.3,12,,15
W231539081274301,536.0,Chhattisgarh,Bilaspur,Kota,Kanchanpur,22.37,82.06,2021.0,7.7,1081.0,0,519.0,50.0,108,2,0,380.0,88.0,38.0,106.0,2.0,0.2,18,,5
W215745083011001,537.0,Chhattisgarh,Janjgir-Champa,Malkharoda,Adbhar,21.66,82.08,2021.0,7.2,863.0,0,336.0,92.0,19,20,0,320.0,72.0,34.0,48.0,15.0,0,17,,1.1
W215911082430304,538.0,Chhattisgarh,Janjgir-Champa,Bamnidih,Afrid,21.99,82.72,2021.0,7.1,1336.0,0,488.0,149.0,71,47,0,600.0,140.0,60.0,41.0,28.0,0.2,10,,5.8
W220135082252001,539.0,Chhattisgarh,Janjgir-Champa,Akaltara,Akaltara,22.03,82.42,2021.0,7.5,615.0,0,214.0,46.0,69,22,0,285.0,56.0,35.0,18.0,3.0,0,13,,1
W220457082273601,540.0,Chhattisgarh,Janjgir-Champa,Akaltara,Bamhani,22.08,82.45,2021.0,7.4,1084.0,0,427.0,113.0,56,19,0,410.0,116.0,29.0,80.0,1.0,0.1,17,,1.2
W215349082372301,541.0,Chhattisgarh,Janjgir-Champa,Nawagarh,Budena,21.9,82.62,2021.0,7.1,673.0,0,140.0,71.0,108,22,0,260.0,60.0,26.0,36.0,5.0,0,10,,2.1
W220207082394001,542.0,Chhattisgarh,Janjgir-Champa,Bamhnidih,Champa,22.04,82.66,2021.0,7.3,1523.0,0,464.0,220.0,17,65,0,640.0,180.0,46.0,55.0,3.0,0,22,,1
W214700083050001,543.0,Chhattisgarh,Janjgir-Champa,Dabhra,Dabra,21.78,83.08,2021.0,7.3,515.0,0,238.0,35.0,20,17,0,205.0,68.0,8.0,34.0,2.0,0.2,10,,1
W215649082500601,544.0,Chhattisgarh,Janjgir-Champa,Jaijaipur,Darra Bhata,21.95,82.84,2021.0,7.4,358.0,0,153.0,7.0,56,3,0,155.0,44.0,11.0,19.0,1.0,0,9,,1.4
W220808082513401,545.0,Chhattisgarh,Janjgir-Champa,Shakti,Damau,22.14,82.86,2021.0,7.4,1095.0,0,275.0,163.0,34,39,0,360.0,108.0,22.0,73.0,4.0,0.3,24,,5.2
W214750082313001,546.0,Chhattisgarh,Janjgir-Champa,Nawagarh,Dhardei,21.8,82.53,2021.0,7.8,327.0,0,73.0,14.0,88,5,0,155.0,32.0,18.0,10.0,1.0,0,6,,3
W215048082272901,547.0,Chhattisgarh,Janjgir-Champa,Pamgarh,Dongakahrod,21.85,82.46,2021.0,7.6,532.0,0,140.0,64.0,50,23,0,220.0,68.0,12.0,26.0,1.0,0,10,,1
W214700083003501,548.0,Chhattisgarh,Janjgir-Champa,Malkharoda,Ghoghari,21.78,83.01,2021.0,7.3,1085.0,0,409.0,121.0,25,19,0,330.0,76.0,34.0,100.0,3.0,0.3,23,,1.1
W214505082544501,549.0,Chhattisgarh,Janjgir-Champa,Jaijaipur,Hasoud,21.75,82.91,2021.0,7.5,267.0,0,49.0,7.0,75,14,0,120.0,48.0,0.0,7.0,0.0,0,10,,1.2
W215000082491501,550.0,Chhattisgarh,Janjgir-Champa,Jaijaipur,Jaijaipur,21.83,82.82,2021.0,7.5,597.0,0,134.0,71.0,91,15,0,225.0,40.0,30.0,34.0,15.0,0,11,,2.5
W220200082202201,551.0,Chhattisgarh,Janjgir-Champa,Akaltara,Jairamnagar,22.03,82.34,2021.0,8,834.0,0,390.0,35.0,31,35,0,340.0,104.0,19.0,40.0,5.0,0,16,,0.9
W220015082344501,552.0,Chhattisgarh,Janjgir-Champa,Nawagarh,Janjgir,22.01,82.58,2021.0,7.5,464.0,0,207.0,21.0,52,9,0,220.0,56.0,19.0,20.0,1.0,0,12,,0.9
W215110082225801,553.0,Chhattisgarh,Janjgir-Champa,Pamgarh,Jewara,21.85,82.38,2021.0,7.4,1280.0,0,397.0,163.0,59,20,0,380.0,76.0,46.0,113.0,9.0,0,19,,4.1
W215514082263501,554.0,Chhattisgarh,Janjgir-Champa,Pamgarh,Jhulanpakariya,21.92,82.44,2021.0,7.6,1339.0,0,360.0,206.0,58,23,0,590.0,128.0,65.0,35.0,1.0,0.3,21,,1.1
W214445082424001,555.0,Chhattisgarh,Janjgir-Champa,Nawagarh,Kera,21.75,82.71,2021.0,8,549.0,0,256.0,28.0,45,4,0,240.0,72.0,14.0,27.0,0.0,0,20,,0.9
W214800082400001,556.0,Chhattisgarh,Janjgir-Champa,Nawagarh,Khartal,21.8,82.67,2021.0,7.8,550.0,0,195.0,43.0,39,13,0,190.0,32.0,26.0,36.0,3.0,0,14,,0.5
W215625082193001,557.0,Chhattisgarh,Janjgir-Champa,Akaltara,Khutighat,21.94,82.33,2021.0,7.7,1058.0,0,293.0,92.0,85,49,0,375.0,92.0,35.0,38.0,31.0,0,24,,1.2
W215530082203001,558.0,Chhattisgarh,Janjgir-Champa,Akaltara,Konargarh,21.93,82.34,2021.0,8.1,423.0,0,122.0,14.0,108,1,0,160.0,52.0,7.0,33.0,1.0,0.2,10,,2.4
W215338082203701,559.0,Chhattisgarh,Janjgir-Champa,Pamgarh,Kosa,21.89,82.34,2021.0,7.6,746.0,0,354.0,35.0,9,8,0,290.0,84.0,19.0,32.0,1.0,0.1,16,,1
W214928083041904,560.0,Chhattisgarh,Janjgir-Champa,Malkharoda,Lachhmanbhata,21.82,83.07,2021.0,7.6,850.0,0,262.0,92.0,48,31,0,290.0,80.0,22.0,58.0,4.0,0,21,,2
W214421083113101,561.0,Chhattisgarh,Janjgir-Champa,Dabhra,Latesara,21.74,83.19,2021.0,7.8,518.0,0,153.0,28.0,72,34,0,250.0,60.0,24.0,7.0,1.0,0,12,,3.8
W214615082332401,562.0,Chhattisgarh,Janjgir-Champa,Nawagarh,Loharsi,21.77,82.56,2021.0,7.8,410.0,0,171.0,14.0,107,1,0,240.0,60.0,22.0,14.0,2.0,0.1,10,,1.2
W214958082294501,563.0,Chhattisgarh,Janjgir-Champa,Janjgir- champa,Mehandi,21.83,82.5,2021.0,7.5,1065.0,0,299.0,135.0,96,16,0,410.0,92.0,43.0,63.0,2.0,0,24,,1.2
W215145082275404,564.0,Chhattisgarh,Janjgir-Champa,Pamgarh,Meubhata,21.86,82.47,2021.0,8,655.0,0,189.0,35.0,84,9,0,185.0,72.0,1.0,51.0,3.0,0,14,,1.3
W214406082391901,565.0,Chhattisgarh,Janjgir-Champa,Janjgir- champa,mudpar,21.74,82.66,2021.0,7.4,2005.0,0,525.0,305.0,8.3,67,0,640.0,228.0,17.0,112.0,30.0,0.3,25,,0.8
W215549082212401,566.0,Chhattisgarh,Janjgir-Champa,Pamgarh,Mulmula,21.93,82.4,2021.0,7.6,855.0,0,305.0,64.0,83,10,0,350.0,88.0,31.0,39.0,1.0,0,12,,1.9
W215652082241801,567.0,Chhattisgarh,Janjgir-Champa,Akaltara,Nariyara,21.95,82.41,2021.0,7.4,936.0,0,372.0,64.0,106,13,0,370.0,84.0,38.0,66.0,1.0,0,16,,0.8
W214846082511704,568.0,Chhattisgarh,Janjgir-Champa,Jaijaipur,Odekara,21.81,82.85,2021.0,7.7,504.0,0,201.0,35.0,13,4,0,250.0,52.0,29.0,16.0,0.0,0,10,,2.1
W215215082271001,569.0,Chhattisgarh,Janjgir-Champa,Pamgarh,Pamgarh,21.87,82.45,2021.0,7.5,671.0,0,171.0,50.0,101,14,0,275.0,84.0,16.0,24.0,1.0,0,14,,0.8
W220115082574501,570.0,Chhattisgarh,Janjgir-Champa,Shakti,Sakti,22.02,82.96,2021.0,7.3,1490.0,0,403.0,163.0,101,43,0,510.0,156.0,29.0,88.0,2.0,0.4,11,,2.1
W215346082444601,571.0,Chhattisgarh,Janjgir-Champa,Shakti,Saliabhata,22.14,82.85,2021.0,7.1,620.0,0,134.0,43.0,90,56,0,270.0,76.0,19.0,12.0,11.0,0.1,13,,3.2
W212200081482501,572.0,Chhattisgarh,Janjgir-Champa,Bamhnidih,Saragaon,21.98,82.75,2021.0,7.7,678.0,0,183.0,92.0,36,18,0,260.0,12.0,55.0,33.0,3.0,0,18,,0.2
W214633082230401,573.0,Chhattisgarh,Janjgir-Champa,Pamgarh,Sasaha,21.78,82.38,2021.0,7.8,770.0,0,281.0,50.0,49,45,0,270.0,24.0,50.0,51.0,8.0,0,17,,1
W214559083150601,574.0,Chhattisgarh,Janjgir-Champa,Nawagarh,Semra,21.86,82.63,2021.0,7.8,356.0,0,195.0,14.0,25,11,0,170.0,40.0,17.0,11.0,1.0,0,6,,0.8
W214400082354001,575.0,Chhattisgarh,Janjgir-Champa,Nawagarh,Seorinarayan,21.73,82.59,2021.0,7.9,428.0,0,226.0,21.0,20,0,0,190.0,32.0,26.0,20.0,0.0,0.2,9,,1
W215753082363901,576.0,Chhattisgarh,Janjgir-Champa,Janjgir,shukli,21.97,82.61,2021.0,8,393.0,0,189.0,14.0,20,4,0,160.0,24.0,24.0,18.0,0.0,0.4,7,,1
W215210083054001,577.0,Chhattisgarh,Janjgir-Champa,Malkharoda,Sukda,21.87,83.09,2021.0,7.8,591.0,0,268.0,28.0,35,33,0,270.0,40.0,41.0,23.0,4.0,0,14,,0.2
W215555082493001,578.0,Chhattisgarh,Janjgir-Champa,Shakti,Thathari,21.93,82.83,2021.0,8,335.0,0,153.0,28.0,15,1,0,150.0,24.0,22.0,13.0,2.0,0,10,,0.3
W205730086064501,579.0,Chhattisgarh,Janjgir-Champa,Pamgarh,vyasnagar,21.87,82.45,2021.0,8,334.0,0,195.0,7.0,10,0,0,140.0,44.0,7.0,20.0,1.0,0,9,,0.2
W222330082225001,580.0,Chhattisgarh,Korba,Pali,Banbandha,22.39,82.38,2021.0,7.9,565.0,0,244.0,35.0,30,6,0,270.0,24.0,50.0,5.0,3.0,0,11,,0.2
W222105082260001,581.0,Chhattisgarh,Korba,Pali,Bandhakhar,22.35,82.43,2021.0,7.9,220.0,0,61.0,14.0,12,41,0,90.0,24.0,7.0,8.0,7.0,0,10,,0.2
W221159082462301,582.0,Chhattisgarh,Korba,Kartala,Barpali,22.2,82.77,2021.0,7.9,858.0,0,244.0,85.0,71,34,0,350.0,36.0,62.0,30.0,7.0,0.2,16,,0.2
W222115082551301,583.0,Chhattisgarh,Korba,Kartala,Batati Junction,22.35,82.92,2021.0,8.1,670.0,0,244.0,28.0,41,57,0,250.0,36.0,38.0,35.0,1.0,0.9,13,,0.2
W222600082260001,584.0,Chhattisgarh,Korba,Katghora,Chaitama,22.43,82.43,2021.0,7.8,111.0,0,49.0,7.0,10,12,0,55.0,12.0,6.0,5.0,3.0,0,5,,0.1
W221910082590501,585.0,Chhattisgarh,Korba,Kartala,Champa mode,22.31,82.99,2021.0,8,113.0,0,37.0,14.0,10,0,0,55.0,16.0,4.0,2.0,4.0,0,7,,0.2
W222028083003501,586.0,Chhattisgarh,Korba,Korba,chachiya,22.34,83.01,2021.0,7.7,128.0,0,37.0,7.0,11,19,0,50.0,12.0,5.0,5.0,7.0,0.2,9,,32
W221424083011301,587.0,Chhattisgarh,Korba,Kartala,Charmar,22.24,83.02,2021.0,8,821.0,0,281.0,57.0,54,39,0,285.0,12.0,61.0,43.0,15.0,0,15,,1
W222110082502501,588.0,Chhattisgarh,Korba,Korba,Dhegurdih manzipara,22.35,82.84,2021.0,7.3,205.0,0,37.0,35.0,12,26,0,80.0,16.0,10.0,11.0,8.0,0,12,,0.2
W191518084462301,589.0,Chhattisgarh,Korba,Katghora,Gopalpur,22.43,82.65,2021.0,7.5,170.0,0,49.0,14.0,12,15,0,60.0,20.0,2.0,8.0,6.0,0,8,,0.2
W222631082342101,590.0,Chhattisgarh,Korba,Katghora,Jamchuwa,22.45,82.58,2021.0,7.7,225.0,0,61.0,14.0,18,26,0,80.0,16.0,10.0,12.0,6.0,0,6,,0.2
W222120082321901,591.0,Chhattisgarh,Korba,Katghora,Jhabar,22.36,82.54,2021.0,7.5,287.0,0,61.0,28.0,13,55,0,115.0,20.0,16.0,12.0,9.0,0,6,,0.2
W221221083000101,592.0,Chhattisgarh,Korba,Kartala,Jogipali,22.21,83,2021.0,7.6,578.0,0,275.0,35.0,25,2,0,155.0,24.0,23.0,68.0,3.0,0,11,,0.4
W221810082574501,593.0,Chhattisgarh,Korba,Kartala,Kartala,22.3,82.96,2021.0,7.9,349.0,0,122.0,21.0,52,1,0,130.0,32.0,12.0,25.0,2.0,0.5,10,,13
W222859082320701,594.0,Chhattisgarh,KORBA,Katghora,Kasania,22.48,82.54,2021.0,7.8,195.0,0,110.0,14.0,19,0,0,100.0,20.0,12.0,13.0,4.0,0,9,,0.3
W223030082311501,595.0,Chhattisgarh,Korba,Katghora,Katghora,22.51,82.52,2021.0,7.7,168.0,0,73.0,7.0,13,1,0,70.0,16.0,7.0,5.0,2.0,0,8,,0.2
W223550082234601,596.0,Chhattisgarh,Korba,Pondi,Khodri,22.6,82.4,2021.0,7.3,444.0,0,171.0,21.0,21,44,0,150.0,24.0,22.0,34.0,1.0,0.2,10,,0.1
W220734082404901,597.0,Chhattisgarh,Korba,korba,kothari naka,22.13,82.68,2021.0,7.7,504.0,0,281.0,14.0,18,6,0,180.0,24.0,29.0,44.0,0.0,0.6,11,,0.2
W224554082154901,598.0,Chhattisgarh,Korba,Pondi,Lenga,22.76,82.26,2021.0,7.8,73.0,0,37.0,4.0,9.2,7,0,25.0,6.0,2.0,2.0,5.0,0,3,,0.1
W224000082225001,599.0,Chhattisgarh,Korba,Pondi,Nagai,22.67,82.38,2021.0,7.6,248.0,0,98.0,7.0,12,26,0,90.0,20.0,10.0,11.0,10.0,0,9,,0.1
W222042082462601,600.0,Chhattisgarh,Korba,Korba,Naktikhar,22.34,82.77,2021.0,7.7,315.0,0,98.0,43.0,11,2,0,145.0,28.0,18.0,3.0,2.0,0,8,,0.3
W222005082322901,601.0,Chhattisgarh,Korba,Katghora,Naraibodh,22.33,82.62,2021.0,7.6,296.0,0,49.0,14.0,10,46,0,180.0,28.0,26.0,10.0,7.0,0,6,,0.1
W221635082520001,602.0,Chhattisgarh,Korba,Pali,Nonbirra,22.34,82.46,2021.0,7.9,247.0,0,159.0,7.0,10,1,0,250.0,28.0,43.0,6.0,5.0,0.5,5,,0.2
W183233073130801,603.0,Chhattisgarh,Korba,Pali,Pali,22.37,82.32,2021.0,7.4,964.0,0,317.0,85.0,73,10,0,350.0,128.0,7.0,52.0,1.0,0.5,19,,0.3
W225030082120001,604.0,Chhattisgarh,Korba,Pondi,Pasan,22.84,82.2,2021.0,7.7,760.0,0,207.0,85.0,60,25,0,290.0,36.0,48.0,36.0,3.0,0.4,18,,0.2
W222211082573501,605.0,Chhattisgarh,Korba,Korba,Pasarkhet,22.36,82.96,2021.0,7.7,348.0,0,122.0,21.0,29,21,0,100.0,12.0,17.0,35.0,1.0,1,9,,0.2
W205147082454001,606.0,Chhattisgarh,Korba,Kartala,Purena,22.18,82.72,2021.0,7.4,197.0,0,37.0,21.0,20,21,0,65.0,20.0,4.0,10.0,7.0,0,8,,0.3
W222651082284201,607.0,Chhattisgarh,Korba,Katghora,Rajkamma,22.45,82.48,2021.0,7.6,234.0,0,79.0,14.0,20,26,0,105.0,24.0,11.0,5.0,9.0,0,9,,0
W222224082461301,608.0,Chhattisgarh,Korba,Korba,Rishdi,22.37,82.76,2021.0,7.6,139.0,0,37.0,7.0,31,1,0,30.0,8.0,2.0,19.0,2.0,0,5,,0.1
W221635082530901,609.0,Chhattisgarh,Korba,Kartala,Sakdukala,22.28,82.88,2021.0,7.5,271.0,0,85.0,28.0,25,10,0,75.0,20.0,6.0,32.0,3.0,0,9,,0.3
W221615082500501,610.0,Chhattisgarh,Korba,Kartala,Salihabhata,22.27,82.83,2021.0,7.4,282.0,0,73.0,35.0,19,25,0,125.0,44.0,4.0,11.0,3.0,0,8,,0
W222931082360101,611.0,Chhattisgarh,Korba,Korba,Salora,22.49,82.6,2021.0,7.7,564.0,0,220.0,50.0,40,1,0,200.0,16.0,38.0,39.0,5.0,0.3,11,,0
W222926082300901,612.0,Chhattisgarh,Korba,Katghora,Sindhiya,22.5,82.5,2021.0,7.6,159.0,0,61.0,7.0,19,7,0,60.0,16.0,5.0,13.0,1.0,0,6,,0
W221148082470701,613.0,Chhattisgarh,Korba,Pondi,Tuman,22.58,82.42,2021.0,8,72.0,0,24.0,4.0,8.6,3,0,20.0,4.0,2.0,4.0,4.0,0,6,,4
W221148082470701,614.0,Chhattisgarh,Korba,Kartala,Tuman,22.2,82.79,2021.0,7.8,348.0,0,171.0,14.0,17,15,0,165.0,28.0,23.0,10.0,2.0,0,10,,0
W221336082434801,615.0,Chhattisgarh,Korba,Kartala,Sargundia,22.23,82.73,2021.0,7.4,1903.0,0,476.0,262.0,100,59,0,690.0,140.0,82.0,101.0,3.0,0,26,,0
W222324082214901,616.0,Chhattisgarh,Korba,Pali,Dumarkochhar,22.39,82.36,2021.0,7.7,722.0,0,354.0,50.0,31,2,0,280.0,32.0,48.0,50.0,5.0,0,20,,0
W222320082222704,617.0,Chhattisgarh,Korba,Pali,Makhanpur,22.39,82.37,2021.0,8,914.0,0,500.0,35.0,31,4,0,330.0,24.0,65.0,64.0,23.0,0.8,21,,4
W222120082191201,618.0,Chhattisgarh,Korba,Pali,Rahadih,22.36,82.32,2021.0,8.1,237.0,0,110.0,14.0,19,1,0,110.0,12.0,19.0,7.0,4.0,0,9,,3
W221928082172401,619.0,Chhattisgarh,Korba,Pali,Baksahi,22.32,82.29,2021.0,7.6,87.0,0,18.0,7.0,7.2,15,0,35.0,6.0,5.0,5.0,0.0,0,5,,6
W222020082183101,620.0,Chhattisgarh,Korba,Pali,Mungadih,22.34,82.31,2021.0,7.5,1071.0,0,281.0,149.0,64,1,0,340.0,52.0,50.0,74.0,5.0,0,22,,0
W221900082355304,621.0,Chhattisgarh,Korba,korba,Bahanpath,22.32,82.6,2021.0,7.7,245.0,0,37.0,35.0,19,39,0,80.0,12.0,12.0,16.0,11.0,0,9,,0
W221222082433301,622.0,Chhattisgarh,Korba,Korba,Barpali(Junadhi),22.21,82.73,2021.0,7.8,361.0,0,110.0,21.0,31,39,0,130.0,24.0,17.0,10.0,24.0,0,10,,0
W222545083023901,623.0,Chhattisgarh,Korba,Korba,Basin,22.43,83.04,2021.0,8,821.0,0,268.0,64.0,67,57,0,270.0,60.0,29.0,56.0,23.0,0,19,,0.3
W222421082370001,624.0,Chhattisgarh,Korba,Katghora,Gajra,22.4,82.62,2021.0,8,362.0,0,195.0,21.0,22,8,0,170.0,32.0,22.0,13.0,14.0,0,9,,5
W222232082523401,625.0,Chhattisgarh,Korba,Korba,Kerwa,22.37,82.88,2021.0,8,223.0,0,104.0,7.0,17,2,0,100.0,24.0,10.0,4.0,3.0,0,7,,6
W222349082592901,626.0,Chhattisgarh,Korba,Korba,Kolga,22.4,82.99,2021.0,7.7,371.0,0,207.0,21.0,22,2,0,200.0,36.0,26.0,10.0,3.0,0.3,8,,1
W222045082420001,627.0,Chhattisgarh,Korba,Korba,Korba,22.2,82.43,2021.0,7.8,518.0,0,275.0,14.0,20,11,0,190.0,32.0,26.0,34.0,11.0,0,10,,4
W221912083043901,628.0,Chhattisgarh,Korba,Kartala,Kudmura,22.32,83.08,2021.0,7.8,588.0,0,195.0,50.0,39,11,0,140.0,16.0,24.0,16.0,81.0,0,10,,3
W205715081152901,629.0,Chhattisgarh,Balod,Gunderdehi,chichalgondi,20.95,81.26,2021.0,7.7,810.0,0,238.0,81.0,65.99,27,0,235.0,64.0,18.0,93.0,3.0,0.2,12,,0
W210042081171301,630.0,Chhattisgarh,Balod,Durg,Danganiya,21.01,81.29,2021.0,7.6,1574.0,0,238.0,273.0,91.22,19,0,385.0,74.0,48.0,171.0,2.0,0.6,10,,0
W204004081075401,631.0,Chhattisgarh,Balod,Sanjari Balod,Gujara,20.67,81.13,2021.0,7.5,887.0,0,195.0,95.0,86.72,46,0,340.0,58.0,47.0,46.0,1.0,0.2,16,,0
W205904080585501,632.0,Chhattisgarh,balod,Doundi- lohara,Jeortala,20.98,80.98,2021.0,7.4,604.0,0,128.0,84.0,51.46,1,0,240.0,62.0,20.0,25.0,0.0,0.1,8,,0
W203720081263301,633.0,Chhattisgarh,Balod,Balod,Jagtara,20.74,81.13,2021.0,7.5,399.0,0,195.0,14.0,20.54,1,0,180.0,50.0,13.0,6.0,2.0,0.2,11,,0
W205419081201501,634.0,Chhattisgarh,Balod,Gunderdehi,Kalangpur,20.91,81.34,2021.0,7.4,516.0,0,207.0,25.0,39.19,2,0,210.0,38.0,28.0,22.0,1.0,0.4,10,,0
W203625081171901,635.0,Chhattisgarh,Balod,Balod,Talgaon,20.61,81.29,2021.0,7.4,312.0,0,134.0,18.0,21.39,1,0,140.0,34.0,13.0,6.0,2.0,0.2,11,,0
W205712081190101,636.0,Chhattisgarh,Balod,Gunderdehi,Machod,20.95,81.32,2021.0,7.7,632.0,0,201.0,74.0,39.05,13,0,105.0,20.0,13.0,108.0,5.0,0.7,7,,0
W205641081234801,637.0,Chhattisgarh,Balod,Gunderdehi,Jhafra,20.94,81.4,2021.0,7.6,630.0,0,256.0,32.0,44.84,0,0,205.0,40.0,25.0,38.0,1.0,0.1,11,,0
W214255081352101,638.0,Chhattisgarh,Bemetara,Bemetara,Baba Mohtara,21.72,81.59,2021.0,7.6,601.0,0,189.0,18.0,71.01,0,0,260.0,36.0,41.0,16.0,1.0,0.2,9,,0
W214546081285801,639.0,Chhattisgarh,Bemetara,Bemetara,Bahera,21.76,81.48,2021.0,7.4,2120.0,0,250.0,133.0,467.1,67,0,810.0,196.0,77.0,104.0,3.0,1,12,,0
W214543081305101,640.0,Chhattisgarh,Bemetara,Bemetara,Baiji,21.76,81.51,2021.0,7.4,2150.0,0,220.0,126.0,526,67,0,855.0,192.0,90.0,104.0,3.0,0.1,13,,0
W214131081132301,641.0,Chhattisgarh,Bemetara,Bemetara,Bhurki,21.71,81.22,2021.0,7.5,825.0,0,220.0,56.0,105.3,22,0,355.0,70.0,43.0,33.0,3.0,0.8,8,,0
W213932081331401,642.0,Chhattisgarh,Bemetara,Bela,Bijabhat,21.66,81.55,2021.0,7.5,569.0,0,220.0,21.0,75.59,0,0,265.0,50.0,34.0,17.0,1.0,0.2,9,,0.1
W215237081275201,643.0,Chhattisgarh,Bemetara,Bemetara,Chilphi,21.88,81.47,2021.0,7.2,2260.0,0,805.0,322.0,23.76,66,0,950.0,280.0,60.0,104.0,3.0,0.1,12,,0
W214121081290201,644.0,Chhattisgarh,Bemetara,Bemetara,Dunra,21.69,81.49,2021.0,7.4,826.0,0,189.0,88.0,106.41,23,0,360.0,64.0,48.0,33.0,3.0,0.6,7,,0
W214453081193201,645.0,Chhattisgarh,Bemetara,Bemetara,Jewari,21.75,81.33,2021.0,7.4,782.0,0,287.0,49.0,54.77,22,0,330.0,68.0,38.0,20.0,0.0,0.8,21,,0
W214006081181901,646.0,Chhattisgarh,Bemetara,Saja,Jata,21.67,81.31,2021.0,7.4,558.0,0,250.0,18.0,37.03,15,0,240.0,42.0,32.0,9.0,1.0,0.2,9,,0
W214100081314801,647.0,Chhattisgarh,Bemetara,Bemetara,Khilora,21.68,81.53,2021.0,7.2,2260.0,0,256.0,161.0,432.75,67,0,815.0,274.0,31.0,103.0,3.0,0.7,12,,0
W214019081282301,648.0,Chhattisgarh,Bemetara,Saja,Ninwa,21.68,81.46,2021.0,7.7,855.0,0,195.0,112.0,103.42,23,0,385.0,70.0,50.0,30.0,3.0,0.3,8,,0
W213517081240501,649.0,Chhattisgarh,Bemetara,Berla,Parpoda,21.59,81.21,2021.0,7.8,408.0,0,134.0,35.0,21.49,23,0,205.0,44.0,23.0,16.0,1.0,0,12,,0
W232055082152001,650.0,Chhattisgarh,Bemetara,Bemetara,Pendri,21.71,81.62,2021.0,7.7,703.0,0,220.0,74.0,100.57,3,0,300.0,58.0,37.0,34.0,1.0,0.4,10,,0
W214215081133201,651.0,Chhattisgarh,Bemetara,Saja,Piparia,21.7,81.23,2021.0,7.6,845.0,0,220.0,109.0,105.24,0,0,350.0,76.0,38.0,42.0,2.0,0,9,,0
W212911081175301,652.0,Chhattisgarh,Bemetara,Saja,Rakhi (Joba),21.49,81.3,2021.0,7.6,863.0,0,220.0,112.0,47.85,25,0,370.0,42.0,64.0,21.0,1.0,0.4,8,,0
